Time,Rate-of-turn,Latitude,Latitude-direction,Longitude,Longitude-direction,Track-degrees-true,Track-degrees-magnetic,Speed-knots,Speed-kmh,Outside-temp,Atmospheric-pressure,Magnetic-sensor-heading,Magnetic-deviation,Magnetic-deviation-direction,Magnetic-variation,Magnetic-variation-direction,Wind-angle-true,Wind-speed-true-knots,Wind-speed-true-meters,Wind-angle-relative,Wind-speed-relative-meters,Roll,Pitch
18/4/2021 12:49:12,0,0,0,0,0,277.6,292.1,0.10,0.18,0,0,0,0,0,0,0,0,0,0,0,0,0,0
18/4/2021 12:49:12,0,0,0,0,0,0,0,0,0,0,0,279.1,000.0,E,014.5,W,0,0,0,0,0,0,0
18/4/2021 12:49:12,0,0,0,0,0,294.5,309.0,0.00,0.00,0,0,0,0,0,0,0,0,0,0,0,0,0,0
18/4/2021 12:49:12,0,0,0,0,0,0,0,0,0,0,0,0,0,0,0,0,0,0,0,0,0,0,0,W
18/4/2021 12:49:12,0,0,0,0,0,0,0,0,0,0,0,0,0,0,0,0,0,0,0,0,0,0,0,W
18/4/2021 12:49:14,0,0,0,0,0,0,0,0,0,0,0,275.0,000.0,E,014.5,W,0,0,0,0,0,0,0
18/4/2021 12:49:14,0,0,0,0,0,0,0,0,0,0,0,273.7,000.0,E,014.5,W,0,0,0,0,0,0,0
18/4/2021 12:49:15,0,0,0,0,0,0,0,0,0,0,0,0,0,0,0,0,0,0,0,0,0,0,0,W
18/4/2021 12:49:16,0,0,0,0,0,0,0,0,0,0,0,272.7,000.0,E,014.5,W,0,0,0,0,0,0,0
18/4/2021 12:49:17,0,0,0,0,0,0,0,0,0,0,0,273.5,000.0,E,014.5,W,0,0,0,0,0,0,0
18/4/2021 12:49:19,0,0,0,0,0,0,0,0,0,0,0,274.2,000.0,E,014.5,W,0,0,0,0,0,0,0
18/4/2021 12:49:19,0,0,0,0,0,0,0,0,0,0,0,0,0,0,0,0,0,0,0,0,0,0,0,W
18/4/2021 12:49:20,0,0,0,0,0,0,0,0,0,0,0,274.3,000.0,E,014.5,W,0,0,0,0,0,0,0
18/4/2021 12:49:21,0,0,0,0,0,0,0,0,0,0,0,0,0,0,0,0,0,0,0,0,0,0,0,W
18/4/2021 12:49:23,0,0,0,0,0,0,0,0,0,0,0,272.2,000.0,E,014.5,W,0,0,0,0,0,0,0
18/4/2021 12:49:23,0,0,0,0,0,0,0,0,0,0,0,271.7,000.0,E,014.5,W,0,0,0,0,0,0,0
18/4/2021 12:49:24,0,0,0,0,0,0,0,0,0,0,0,271.3,000.0,E,014.5,W,0,0,0,0,0,0,0
18/4/2021 12:49:24,0,0,0,0,0,0,0,0,0,0,0,271.2,000.0,E,014.5,W,0,0,0,0,0,0,0
18/4/2021 12:49:26,0,0,0,0,0,023.3,037.8,0.10,0.18,0,0,0,0,0,0,0,0,0,0,0,0,0,0
18/4/2021 12:49:27,0,0,0,0,0,048.3,062.8,0.10,0.18,0,0,0,0,0,0,0,0,0,0,0,0,0,0
18/4/2021 12:49:28,0,0,0,0,0,0,0,0,0,0,0,271.4,000.0,E,014.5,W,0,0,0,0,0,0,0
18/4/2021 12:49:28,0,0,0,0,0,0,0,0,0,0,0,0,0,0,0,0,0,0,0,0,0,0,0,W
18/4/2021 12:49:29,0,0,0,0,0,165.3,179.8,0.10,0.18,0,0,0,0,0,0,0,0,0,0,0,0,0,0
18/4/2021 12:49:31,0,0,0,0,0,0,0,0,0,0,0,276.3,000.0,E,014.5,W,0,0,0,0,0,0,0
18/4/2021 12:49:31,0,0,0,0,0,0,0,0,0,0,0,275.5,000.0,E,014.5,W,0,0,0,0,0,0,0
18/4/2021 12:49:32,0,0,0,0,0,0,0,0,0,0,0,0,0,0,0,0,0,0,0,0,0,0,0,W
18/4/2021 12:49:32,0,0,0,0,0,0,0,0,0,0,0,274.7,000.0,E,014.5,W,0,0,0,0,0,0,0
18/4/2021 12:49:33,0,0,0,0,0,0,0,0,0,0,0,0,0,0,0,0,0,0,0,0,0,0,0,W
18/4/2021 12:49:34,0,0,0,0,0,0,0,0,0,0,0,276.2,000.0,E,014.5,W,0,0,0,0,0,0,0
18/4/2021 12:49:35,0,0,0,0,0,0,0,0,0,0,0,276.6,000.0,E,014.5,W,0,0,0,0,0,0,0
18/4/2021 12:49:35,0,0,0,0,0,287.3,301.8,0.19,0.36,0,0,0,0,0,0,0,0,0,0,0,0,0,0
18/4/2021 12:49:38,0,0,0,0,0,0,0,0,0,0,0,0,0,0,0,0,0,0,0,0,0,0,0,W
18/4/2021 12:49:39,0,0,0,0,0,0,0,0,0,0,0,0,0,0,0,0,0,0,0,0,0,0,0,W
18/4/2021 12:49:39,0,0,0,0,0,306.8,321.3,0.19,0.36,0,0,0,0,0,0,0,0,0,0,0,0,0,0
18/4/2021 12:49:40,0,0,0,0,0,0,0,0,0,0,0,277.1,000.0,E,014.5,W,0,0,0,0,0,0,0
18/4/2021 12:49:42,0,0,0,0,0,0,0,0,0,0,0,272.2,000.0,E,014.5,W,0,0,0,0,0,0,0
18/4/2021 12:49:43,0,0,0,0,0,0,0,0,0,0,0,0,0,0,0,0,0,0,0,0,0,0,0,W
18/4/2021 12:49:43,0,0,0,0,0,0,0,0,0,0,0,0,0,0,0,0,0,0,0,0,0,0,0,W
18/4/2021 12:49:44,0,0,0,0,0,0,0,0,0,0,0,269.3,000.0,E,014.5,W,0,0,0,0,0,0,0
18/4/2021 12:49:44,0,0,0,0,0,0,0,0,0,0,0,269.3,000.0,E,014.5,W,0,0,0,0,0,0,0
18/4/2021 12:49:44,0,0,0,0,0,0,0,0,0,0,0,270.3,000.0,E,014.5,W,0,0,0,0,0,0,0
18/4/2021 12:49:46,0,0,0,0,0,0,0,0,0,0,0,269.6,000.0,E,014.5,W,0,0,0,0,0,0,0
18/4/2021 12:49:52,0,0,0,0,0,0,0,0,0,0,0,250.3,000.0,E,014.5,W,0,0,0,0,0,0,0
18/4/2021 12:49:52,0,0,0,0,0,295.1,309.6,0.39,0.72,0,0,0,0,0,0,0,0,0,0,0,0,0,0
18/4/2021 12:49:52,0,0,0,0,0,0,0,0,0,0,0,0,0,0,0,0,0,0,0,0,0,0,0,W
18/4/2021 12:49:53,0,0,0,0,0,0,0,0,0,0,0,0,0,0,0,0,0,0,0,0,0,0,0,W
18/4/2021 12:49:53,0,0,0,0,0,0,0,0,0,0,0,242.0,000.0,E,014.5,W,0,0,0,0,0,0,0
18/4/2021 12:49:54,0,0,0,0,0,0,0,0,0,0,0,241.7,000.0,E,014.5,W,0,0,0,0,0,0,0
18/4/2021 12:49:55,0,0,0,0,0,0,0,0,0,0,0,0,0,0,0,0,0,0,0,0,0,0,0,W
18/4/2021 12:49:56,0,0,0,0,0,0,0,0,0,0,0,241.9,000.0,E,014.5,W,0,0,0,0,0,0,0
18/4/2021 12:49:56,0,0,0,0,0,0,0,0,0,0,0,242.6,000.0,E,014.5,W,0,0,0,0,0,0,0
18/4/2021 12:49:57,0,0,0,0,0,0,0,0,0,0,0,242.7,000.0,E,014.5,W,0,0,0,0,0,0,0
18/4/2021 12:49:58,0,0,0,0,0,0,0,0,0,0,0,243.0,000.0,E,014.5,W,0,0,0,0,0,0,0
18/4/2021 12:49:58,0,0,0,0,0,0,0,0,0,0,0,243.5,000.0,E,014.5,W,0,0,0,0,0,0,0
18/4/2021 12:49:58,0,0,0,0,0,0,0,0,0,0,0,243.5,000.0,E,014.5,W,0,0,0,0,0,0,0
18/4/2021 12:50:0,0,0,0,0,0,0,0,0,0,0,0,242.5,000.0,E,014.5,W,0,0,0,0,0,0,0
18/4/2021 12:50:1,0,0,0,0,0,0,0,0,0,0,0,0,0,0,0,0,0,0,0,0,0,0,0,W
18/4/2021 12:50:2,0,0,0,0,0,0,0,0,0,0,0,240.6,000.0,E,014.5,W,0,0,0,0,0,0,0
18/4/2021 12:50:2,0,0,0,0,0,025.8,040.3,0.10,0.18,0,0,0,0,0,0,0,0,0,0,0,0,0,0
18/4/2021 12:50:3,0,0,0,0,0,0,0,0,0,0,0,240.5,000.0,E,014.5,W,0,0,0,0,0,0,0
18/4/2021 12:50:5,0,0,0,0,0,324.4,338.9,0.19,0.36,0,0,0,0,0,0,0,0,0,0,0,0,0,0
18/4/2021 12:50:6,0,0,0,0,0,346.1,360.6,0.10,0.18,0,0,0,0,0,0,0,0,0,0,0,0,0,0
18/4/2021 12:50:7,0,0,0,0,0,0,0,0,0,0,0,240.2,000.0,E,014.5,W,0,0,0,0,0,0,0
18/4/2021 12:50:8,0,0,0,0,0,0,0,0,0,0,0,244.2,000.0,E,014.5,W,0,0,0,0,0,0,0
18/4/2021 12:50:9,0,0,0,0,0,0,0,0,0,0,0,244.0,000.0,E,014.5,W,0,0,0,0,0,0,0
18/4/2021 12:50:9,0,0,0,0,0,0,0,0,0,0,0,242.8,000.0,E,014.5,W,0,0,0,0,0,0,0
18/4/2021 12:50:9,0,0,0,0,0,063.9,078.4,0.29,0.54,0,0,0,0,0,0,0,0,0,0,0,0,0,0
18/4/2021 12:50:11,0,0,0,0,0,0,0,0,0,0,0,235.6,000.0,E,014.5,W,0,0,0,0,0,0,0
18/4/2021 12:50:13,0,0,0,0,0,0,0,0,0,0,0,229.7,000.0,E,014.5,W,0,0,0,0,0,0,0
18/4/2021 12:50:15,0,0,0,0,0,0,0,0,0,0,0,233.0,000.0,E,014.5,W,0,0,0,0,0,0,0
18/4/2021 12:50:16,0,0,0,0,0,0,0,0,0,0,0,233.5,000.0,E,014.5,W,0,0,0,0,0,0,0
18/4/2021 12:50:16,0,0,0,0,0,0,0,0,0,0,0,233.7,000.0,E,014.5,W,0,0,0,0,0,0,0
18/4/2021 12:50:16,0,0,0,0,0,188.3,202.8,0.39,0.72,0,0,0,0,0,0,0,0,0,0,0,0,0,0
18/4/2021 12:50:16,0,0,0,0,0,0,0,0,0,0,0,0,0,0,0,0,0,0,0,0,0,0,0,W
18/4/2021 12:50:17,0,0,0,0,0,0,0,0,0,0,0,235.6,000.0,E,014.5,W,0,0,0,0,0,0,0
18/4/2021 12:50:17,0,0,0,0,0,0,0,0,0,0,0,0,0,0,0,0,0,0,0,0,0,0,0,W
18/4/2021 12:50:18,0,0,0,0,0,0,0,0,0,0,0,237.2,000.0,E,014.5,W,0,0,0,0,0,0,0
18/4/2021 12:50:21,0,0,0,0,0,0,0,0,0,0,0,227.2,000.0,E,014.5,W,0,0,0,0,0,0,0
18/4/2021 12:50:22,0,0,0,0,0,0,0,0,0,0,0,227.2,000.0,E,014.5,W,0,0,0,0,0,0,0
18/4/2021 12:50:23,0,0,0,0,0,0,0,0,0,0,0,227.9,000.0,E,014.5,W,0,0,0,0,0,0,0
18/4/2021 12:50:23,0,0,0,0,0,0,0,0,0,0,0,228.3,000.0,E,014.5,W,0,0,0,0,0,0,0
18/4/2021 12:50:27,0,0,0,0,0,0,0,0,0,0,0,0,0,0,0,0,0,0,0,0,0,0,0,W
18/4/2021 12:50:30,0,0,0,0,0,0,0,0,0,0,0,225.8,000.0,E,014.5,W,0,0,0,0,0,0,0
18/4/2021 12:50:31,0,0,0,0,0,0,0,0,0,0,0,224.7,000.0,E,014.5,W,0,0,0,0,0,0,0
18/4/2021 12:50:31,0,0,0,0,0,0,0,0,0,0,0,0,0,0,0,0,0,0,0,0,0,0,0,W
18/4/2021 12:50:32,0,0,0,0,0,0,0,0,0,0,0,0,0,0,0,0,0,0,0,0,0,0,0,W
18/4/2021 12:50:33,0,0,0,0,0,0,0,0,0,0,0,0,0,0,0,0,0,0,0,0,0,0,0,W
18/4/2021 12:50:34,0,0,0,0,0,0,0,0,0,0,0,227.4,000.0,E,014.5,W,0,0,0,0,0,0,0
18/4/2021 12:50:34,0,0,0,0,0,0,0,0,0,0,0,231.2,000.0,E,014.5,W,0,0,0,0,0,0,0
18/4/2021 12:50:35,0,0,0,0,0,0,0,0,0,0,0,235.7,000.0,E,014.5,W,0,0,0,0,0,0,0
18/4/2021 12:50:36,0,0,0,0,0,0,0,0,0,0,0,236.1,000.0,E,014.5,W,0,0,0,0,0,0,0
18/4/2021 12:50:36,0,0,0,0,0,219.4,233.9,0.00,0.00,0,0,0,0,0,0,0,0,0,0,0,0,0,0
18/4/2021 12:50:36,0,0,0,0,0,221.5,236.0,0.10,0.18,0,0,0,0,0,0,0,0,0,0,0,0,0,0
18/4/2021 12:50:37,0,0,0,0,0,0,0,0,0,0,0,0,0,0,0,0,0,0,0,0,0,0,0,W
18/4/2021 12:50:38,0,0,0,0,0,312.8,327.3,0.10,0.18,0,0,0,0,0,0,0,0,0,0,0,0,0,0
18/4/2021 12:50:41,0,0,0,0,0,145.0,159.5,0.19,0.36,0,0,0,0,0,0,0,0,0,0,0,0,0,0
18/4/2021 12:50:42,0,0,0,0,0,0,0,0,0,0,0,234.6,000.0,E,014.5,W,0,0,0,0,0,0,0
18/4/2021 12:50:48,0,0,0,0,0,0,0,0,0,0,0,0,0,0,0,0,0,0,0,0,0,0,0,W
18/4/2021 12:50:49,0,0,0,0,0,0,0,0,0,0,0,244.4,000.0,E,014.5,W,0,0,0,0,0,0,0
18/4/2021 12:50:50,0,0,0,0,0,0,0,0,0,0,0,244.9,000.0,E,014.5,W,0,0,0,0,0,0,0
18/4/2021 12:50:50,0,0,0,0,0,0,0,0,0,0,0,245.6,000.0,E,014.5,W,0,0,0,0,0,0,0
18/4/2021 12:50:50,0,0,0,0,0,0,0,0,0,0,0,246.9,000.0,E,014.5,W,0,0,0,0,0,0,0
18/4/2021 12:50:53,0,0,0,0,0,0,0,0,0,0,0,249.6,000.0,E,014.5,W,0,0,0,0,0,0,0
18/4/2021 12:50:53,0,0,0,0,0,134.2,148.7,0.19,0.36,0,0,0,0,0,0,0,0,0,0,0,0,0,0
18/4/2021 12:50:55,0,0,0,0,0,0,0,0,0,0,0,259.3,000.0,E,014.5,W,0,0,0,0,0,0,0
18/4/2021 12:50:57,0,0,0,0,0,0,0,0,0,0,0,0,0,0,0,0,0,0,0,0,0,0,0,W
18/4/2021 12:50:57,0,0,0,0,0,0,0,0,0,0,0,0,0,0,0,0,0,0,0,0,0,0,0,W
18/4/2021 12:50:58,0,0,0,0,0,0,0,0,0,0,0,258.2,000.0,E,014.5,W,0,0,0,0,0,0,0
18/4/2021 12:51:2,0,0,0,0,0,0,0,0,0,0,0,0,0,0,0,0,0,0,0,0,0,0,0,W
18/4/2021 12:51:3,0,0,0,0,0,0,0,0,0,0,0,0,0,0,0,0,0,0,0,0,0,0,0,W
18/4/2021 12:51:4,0,0,0,0,0,0,0,0,0,0,0,256.7,000.0,E,014.5,W,0,0,0,0,0,0,0
18/4/2021 12:51:5,0,0,0,0,0,147.1,161.6,0.10,0.18,0,0,0,0,0,0,0,0,0,0,0,0,0,0
18/4/2021 12:51:9,0,0,0,0,0,164.0,178.5,0.10,0.18,0,0,0,0,0,0,0,0,0,0,0,0,0,0
18/4/2021 12:51:10,0,0,0,0,0,0,0,0,0,0,0,265.1,000.0,E,014.5,W,0,0,0,0,0,0,0
18/4/2021 12:51:12,0,0,0,0,0,0,0,0,0,0,0,266.6,000.0,E,014.5,W,0,0,0,0,0,0,0
18/4/2021 12:51:13,0,0,0,0,0,197.0,211.5,0.10,0.18,0,0,0,0,0,0,0,0,0,0,0,0,0,0
18/4/2021 12:51:13,0,0,0,0,0,0,0,0,0,0,0,0,0,0,0,0,0,0,0,0,0,0,0,W
18/4/2021 12:51:14,0,0,0,0,0,0,0,0,0,0,0,269.5,000.0,E,014.5,W,0,0,0,0,0,0,0
18/4/2021 12:51:14,0,0,0,0,0,225.9,240.4,0.10,0.18,0,0,0,0,0,0,0,0,0,0,0,0,0,0
18/4/2021 12:51:14,0,0,0,0,0,0,0,0,0,0,0,0,0,0,0,0,0,0,0,0,0,0,0,W
18/4/2021 12:51:15,0,0,0,0,0,0,0,0,0,0,0,269.4,000.0,E,014.5,W,0,0,0,0,0,0,0
18/4/2021 12:51:15,0,0,0,0,0,267.7,282.2,0.10,0.18,0,0,0,0,0,0,0,0,0,0,0,0,0,0
18/4/2021 12:51:18,0,0,0,0,0,0,0,0,0,0,0,269.8,000.0,E,014.5,W,0,0,0,0,0,0,0
18/4/2021 12:51:18,0,0,0,0,0,0,0,0,0,0,0,269.9,000.0,E,014.5,W,0,0,0,0,0,0,0
18/4/2021 12:51:19,0,0,0,0,0,0,0,0,0,0,0,270.0,000.0,E,014.5,W,0,0,0,0,0,0,0
18/4/2021 12:51:21,0,0,0,0,0,0,0,0,0,0,0,269.1,000.0,E,014.5,W,0,0,0,0,0,0,0
18/4/2021 12:51:22,0,0,0,0,0,0,0,0,0,0,0,0,0,0,0,0,0,0,0,0,0,0,0,W
18/4/2021 12:51:26,0,0,0,0,0,0,0,0,0,0,0,266.7,000.0,E,014.5,W,0,0,0,0,0,0,0
18/4/2021 12:51:27,0,0,0,0,0,0,0,0,0,0,0,266.1,000.0,E,014.5,W,0,0,0,0,0,0,0
18/4/2021 12:51:27,0,0,0,0,0,0,0,0,0,0,0,266.0,000.0,E,014.5,W,0,0,0,0,0,0,0
18/4/2021 12:51:27,0,0,0,0,0,208.6,223.1,0.00,0.00,0,0,0,0,0,0,0,0,0,0,0,0,0,0
18/4/2021 12:51:30,0,0,0,0,0,163.1,177.6,0.10,0.18,0,0,0,0,0,0,0,0,0,0,0,0,0,0
18/4/2021 12:51:31,0,0,0,0,0,0,0,0,0,0,0,267.2,000.0,E,014.5,W,0,0,0,0,0,0,0
18/4/2021 12:51:31,0,0,0,0,0,0,0,0,0,0,0,267.7,000.0,E,014.5,W,0,0,0,0,0,0,0
18/4/2021 12:51:32,0,0,0,0,0,0,0,0,0,0,0,267.9,000.0,E,014.5,W,0,0,0,0,0,0,0
18/4/2021 12:51:33,0,0,0,0,0,0,0,0,0,0,0,267.9,000.0,E,014.5,W,0,0,0,0,0,0,0
18/4/2021 12:51:34,0,0,0,0,0,0,0,0,0,0,0,0,0,0,0,0,0,0,0,0,0,0,0,W
18/4/2021 12:51:34,0,0,0,0,0,140.3,154.8,0.10,0.18,0,0,0,0,0,0,0,0,0,0,0,0,0,0
18/4/2021 12:51:36,0,0,0,0,0,0,0,0,0,0,0,0,0,0,0,0,0,0,0,0,0,0,0,W
18/4/2021 12:51:36,0,0,0,0,0,0,0,0,0,0,0,0,0,0,0,0,0,0,0,0,0,0,0,W
18/4/2021 12:51:37,0,0,0,0,0,0,0,0,0,0,0,269.4,000.0,E,014.5,W,0,0,0,0,0,0,0
18/4/2021 12:51:38,0,0,0,0,0,0,0,0,0,0,0,270.2,000.0,E,014.5,W,0,0,0,0,0,0,0
18/4/2021 12:51:38,0,0,0,0,0,0,0,0,0,0,0,0,0,0,0,0,0,0,0,0,0,0,0,W
18/4/2021 12:51:40,0,0,0,0,0,0,0,0,0,0,0,272.0,000.0,E,014.5,W,0,0,0,0,0,0,0
18/4/2021 12:51:40,0,0,0,0,0,0,0,0,0,0,0,272.1,000.0,E,014.5,W,0,0,0,0,0,0,0
18/4/2021 12:51:41,0,0,0,0,0,0,0,0,0,0,0,272.9,000.0,E,014.5,W,0,0,0,0,0,0,0
18/4/2021 12:51:42,0,0,0,0,0,0,0,0,0,0,0,0,0,0,0,0,0,0,0,0,0,0,0,W
18/4/2021 12:51:42,0,0,0,0,0,0,0,0,0,0,0,273.5,000.0,E,014.5,W,0,0,0,0,0,0,0
18/4/2021 12:51:43,0,0,0,0,0,0,0,0,0,0,0,273.6,000.0,E,014.5,W,0,0,0,0,0,0,0
18/4/2021 12:51:43,0,0,0,0,0,113.1,127.6,0.10,0.18,0,0,0,0,0,0,0,0,0,0,0,0,0,0
18/4/2021 12:51:44,0,0,0,0,0,0,0,0,0,0,0,274.2,000.0,E,014.5,W,0,0,0,0,0,0,0
18/4/2021 12:51:44,0,0,0,0,0,0,0,0,0,0,0,0,0,0,0,0,0,0,0,0,0,0,0,W
18/4/2021 12:51:45,0,0,0,0,0,0,0,0,0,0,0,274.2,000.0,E,014.5,W,0,0,0,0,0,0,0
18/4/2021 12:51:47,0,0,0,0,0,107.3,121.8,0.10,0.18,0,0,0,0,0,0,0,0,0,0,0,0,0,0
18/4/2021 12:51:48,0,0,0,0,0,100.6,115.1,0.10,0.18,0,0,0,0,0,0,0,0,0,0,0,0,0,0
18/4/2021 12:51:49,0,0,0,0,0,093.2,107.7,0.10,0.18,0,0,0,0,0,0,0,0,0,0,0,0,0,0
18/4/2021 12:51:49,0,0,0,0,0,0,0,0,0,0,0,271.8,000.0,E,014.5,W,0,0,0,0,0,0,0
18/4/2021 12:51:50,0,0,0,0,0,002.1,016.6,0.00,0.00,0,0,0,0,0,0,0,0,0,0,0,0,0,0
18/4/2021 12:51:51,0,0,0,0,0,0,0,0,0,0,0,0,0,0,0,0,0,0,0,0,0,0,0,W
18/4/2021 12:51:51,0,0,0,0,0,0,0,0,0,0,0,276.9,000.0,E,014.5,W,0,0,0,0,0,0,0
18/4/2021 12:51:52,0,0,0,0,0,223.7,238.2,0.00,0.00,0,0,0,0,0,0,0,0,0,0,0,0,0,0
18/4/2021 12:51:53,0,0,0,0,0,0,0,0,0,0,0,0,0,0,0,0,0,0,0,0,0,0,0,W
18/4/2021 12:51:55,0,0,0,0,0,0,0,0,0,0,0,274.3,000.0,E,014.5,W,0,0,0,0,0,0,0
18/4/2021 12:51:55,0,0,0,0,0,351.4,365.9,0.10,0.18,0,0,0,0,0,0,0,0,0,0,0,0,0,0
18/4/2021 12:51:56,0,0,0,0,0,0,0,0,0,0,0,272.5,000.0,E,014.5,W,0,0,0,0,0,0,0
18/4/2021 12:51:56,0,0,0,0,0,0,0,0,0,0,0,0,0,0,0,0,0,0,0,0,0,0,0,W
18/4/2021 12:51:57,0,0,0,0,0,0,0,0,0,0,0,270.8,000.0,E,014.5,W,0,0,0,0,0,0,0
18/4/2021 12:51:57,0,0,0,0,0,0,0,0,0,0,0,270.7,000.0,E,014.5,W,0,0,0,0,0,0,0
18/4/2021 12:51:58,0,0,0,0,0,354.2,368.7,0.10,0.18,0,0,0,0,0,0,0,0,0,0,0,0,0,0
18/4/2021 12:51:58,0,0,0,0,0,358.7,373.2,0.10,0.18,0,0,0,0,0,0,0,0,0,0,0,0,0,0
18/4/2021 12:51:59,0,0,0,0,0,0,0,0,0,0,0,270.5,000.0,E,014.5,W,0,0,0,0,0,0,0
18/4/2021 12:52:0,0,0,0,0,0,0,0,0,0,0,0,270.9,000.0,E,014.5,W,0,0,0,0,0,0,0
18/4/2021 12:52:0,0,0,0,0,0,0,0,0,0,0,0,270.9,000.0,E,014.5,W,0,0,0,0,0,0,0
18/4/2021 12:52:1,0,0,0,0,0,0,0,0,0,0,0,273.6,000.0,E,014.5,W,0,0,0,0,0,0,0
18/4/2021 12:52:1,0,0,0,0,0,0,0,0,0,0,0,272.8,000.0,E,014.5,W,0,0,0,0,0,0,0
18/4/2021 12:52:2,0,0,0,0,0,0,0,0,0,0,0,271.1,000.0,E,014.5,W,0,0,0,0,0,0,0
18/4/2021 12:52:3,0,0,0,0,0,0,0,0,0,0,0,269.3,000.0,E,014.5,W,0,0,0,0,0,0,0
18/4/2021 12:52:4,0,0,0,0,0,0,0,0,0,0,0,269.4,000.0,E,014.5,W,0,0,0,0,0,0,0
18/4/2021 12:52:4,0,0,0,0,0,0,0,0,0,0,0,269.6,000.0,E,014.5,W,0,0,0,0,0,0,0
18/4/2021 12:52:5,0,0,0,0,0,0,0,0,0,0,0,270.4,000.0,E,014.5,W,0,0,0,0,0,0,0
18/4/2021 12:52:5,0,0,0,0,0,031.5,046.0,0.10,0.18,0,0,0,0,0,0,0,0,0,0,0,0,0,0
18/4/2021 12:52:7,0,0,0,0,0,0,0,0,0,0,0,0,0,0,0,0,0,0,0,0,0,0,0,W
18/4/2021 12:52:7,0,0,0,0,0,337.5,352.0,0.10,0.18,0,0,0,0,0,0,0,0,0,0,0,0,0,0
18/4/2021 12:52:8,0,0,0,0,0,0,0,0,0,0,0,0,0,0,0,0,0,0,0,0,0,0,0,W
18/4/2021 12:52:8,0,0,0,0,0,0,0,0,0,0,0,270.5,000.0,E,014.5,W,0,0,0,0,0,0,0
18/4/2021 12:52:9,0,0,0,0,0,0,0,0,0,0,0,270.4,000.0,E,014.5,W,0,0,0,0,0,0,0
18/4/2021 12:52:9,0,0,0,0,0,320.2,334.7,0.00,0.00,0,0,0,0,0,0,0,0,0,0,0,0,0,0
18/4/2021 12:52:10,0,0,0,0,0,0,0,0,0,0,0,270.7,000.0,E,014.5,W,0,0,0,0,0,0,0
18/4/2021 12:52:10,0,0,0,0,0,0,0,0,0,0,0,270.7,000.0,E,014.5,W,0,0,0,0,0,0,0
18/4/2021 12:52:12,0,0,0,0,0,0,0,0,0,0,0,0,0,0,0,0,0,0,0,0,0,0,0,W
18/4/2021 12:52:14,0,0,0,0,0,078.4,092.9,0.19,0.36,0,0,0,0,0,0,0,0,0,0,0,0,0,0
18/4/2021 12:52:17,0,0,0,0,0,131.7,146.2,0.10,0.18,0,0,0,0,0,0,0,0,0,0,0,0,0,0
18/4/2021 12:52:18,0,0,0,0,0,0,0,0,0,0,0,0,0,0,0,0,0,0,0,0,0,0,0,W
18/4/2021 12:52:19,0,0,0,0,0,0,0,0,0,0,0,269.3,000.0,E,014.5,W,0,0,0,0,0,0,0
18/4/2021 12:52:19,0,0,0,0,0,0,0,0,0,0,0,0,0,0,0,0,0,0,0,0,0,0,0,W
18/4/2021 12:52:20,0,0,0,0,0,0,0,0,0,0,0,0,0,0,0,0,0,0,0,0,0,0,0,W
18/4/2021 12:52:20,0,0,0,0,0,0,0,0,0,0,0,272.4,000.0,E,014.5,W,0,0,0,0,0,0,0
18/4/2021 12:52:21,0,0,0,0,0,0,0,0,0,0,0,272.3,000.0,E,014.5,W,0,0,0,0,0,0,0
18/4/2021 12:52:21,0,0,0,0,0,135.7,150.2,0.10,0.18,0,0,0,0,0,0,0,0,0,0,0,0,0,0
18/4/2021 12:52:21,0,0,0,0,0,0,0,0,0,0,0,272.2,000.0,E,014.5,W,0,0,0,0,0,0,0
18/4/2021 12:52:23,0,0,0,0,0,0,0,0,0,0,0,273.2,000.0,E,014.5,W,0,0,0,0,0,0,0
18/4/2021 12:52:23,0,0,0,0,0,0,0,0,0,0,0,0,0,0,0,0,0,0,0,0,0,0,0,W
18/4/2021 12:52:24,0,0,0,0,0,0,0,0,0,0,0,274.1,000.0,E,014.5,W,0,0,0,0,0,0,0
18/4/2021 12:52:25,0,0,0,0,0,149.3,163.8,0.10,0.18,0,0,0,0,0,0,0,0,0,0,0,0,0,0
18/4/2021 12:52:26,0,0,0,0,0,0,0,0,0,0,0,0,0,0,0,0,0,0,0,0,0,0,0,W
18/4/2021 12:52:27,0,0,0,0,0,0,0,0,0,0,0,0,0,0,0,0,0,0,0,0,0,0,0,W
18/4/2021 12:52:28,0,0,0,0,0,0,0,0,0,0,0,273.8,000.0,E,014.5,W,0,0,0,0,0,0,0
18/4/2021 12:52:28,0,0,0,0,0,176.8,191.3,0.00,0.00,0,0,0,0,0,0,0,0,0,0,0,0,0,0
18/4/2021 12:52:30,0,0,0,0,0,0,0,0,0,0,0,274.4,000.0,E,014.5,W,0,0,0,0,0,0,0
18/4/2021 12:52:30,0,0,0,0,0,0,0,0,0,0,0,276.8,000.0,E,014.5,W,0,0,0,0,0,0,0
18/4/2021 12:52:32,0,0,0,0,0,0,0,0,0,0,0,280.9,000.0,E,014.5,W,0,0,0,0,0,0,0
18/4/2021 12:52:33,0,0,0,0,0,0,0,0,0,0,0,0,0,0,0,0,0,0,0,0,0,0,0,W
18/4/2021 12:52:35,0,0,0,0,0,0,0,0,0,0,0,281.8,000.0,E,014.5,W,0,0,0,0,0,0,0
18/4/2021 12:52:36,0,0,0,0,0,0,0,0,0,0,0,282.1,000.0,E,014.5,W,0,0,0,0,0,0,0
18/4/2021 12:52:42,0,0,0,0,0,0,0,0,0,0,0,271.0,000.0,E,014.5,W,0,0,0,0,0,0,0
18/4/2021 12:52:42,0,0,0,0,0,0,0,0,0,0,0,0,0,0,0,0,0,0,0,0,0,0,0,W
18/4/2021 12:52:46,0,0,0,0,0,0,0,0,0,0,0,263.2,000.0,E,014.5,W,0,0,0,0,0,0,0
18/4/2021 12:52:47,0,0,0,0,0,0,0,0,0,0,0,269.7,000.0,E,014.5,W,0,0,0,0,0,0,0
18/4/2021 12:52:48,0,0,0,0,0,0,0,0,0,0,0,266.5,000.0,E,014.5,W,0,0,0,0,0,0,0
18/4/2021 12:52:48,0,0,0,0,0,0,0,0,0,0,0,0,0,0,0,0,0,0,0,0,0,0,0,W
18/4/2021 12:52:51,0,0,0,0,0,130.4,144.9,0.19,0.36,0,0,0,0,0,0,0,0,0,0,0,0,0,0
18/4/2021 12:52:52,0,0,0,0,0,0,0,0,0,0,0,0,0,0,0,0,0,0,0,0,0,0,0,W
18/4/2021 12:52:53,0,0,0,0,0,0,0,0,0,0,0,272.4,000.0,E,014.5,W,0,0,0,0,0,0,0
18/4/2021 12:52:54,0,0,0,0,0,0,0,0,0,0,0,0,0,0,0,0,0,0,0,0,0,0,0,W
18/4/2021 12:52:57,0,0,0,0,0,0,0,0,0,0,0,258.9,000.0,E,014.5,W,0,0,0,0,0,0,0
18/4/2021 12:52:57,0,0,0,0,0,0,0,0,0,0,0,260.1,000.0,E,014.5,W,0,0,0,0,0,0,0
18/4/2021 12:52:58,0,0,0,0,0,0,0,0,0,0,0,262.5,000.0,E,014.5,W,0,0,0,0,0,0,0
18/4/2021 12:52:59,0,0,0,0,0,0,0,0,0,0,0,267.9,000.0,E,014.5,W,0,0,0,0,0,0,0
18/4/2021 12:53:2,0,0,0,0,0,0,0,0,0,0,0,257.4,000.0,E,014.5,W,0,0,0,0,0,0,0
18/4/2021 12:53:3,0,0,0,0,0,034.5,049.0,0.10,0.18,0,0,0,0,0,0,0,0,0,0,0,0,0,0
18/4/2021 12:53:4,0,0,0,0,0,0,0,0,0,0,0,263.5,000.0,E,014.5,W,0,0,0,0,0,0,0
18/4/2021 12:53:4,0,0,0,0,0,001.4,015.9,0.10,0.18,0,0,0,0,0,0,0,0,0,0,0,0,0,0
18/4/2021 12:53:6,0,0,0,0,0,0,0,0,0,0,0,259.3,000.0,E,014.5,W,0,0,0,0,0,0,0
18/4/2021 12:53:8,0,0,0,0,0,0,0,0,0,0,0,257.7,000.0,E,014.5,W,0,0,0,0,0,0,0
18/4/2021 12:53:8,0,0,0,0,0,0,0,0,0,0,0,258.0,000.0,E,014.5,W,0,0,0,0,0,0,0
18/4/2021 12:53:8,0,0,0,0,0,0,0,0,0,0,0,0,0,0,0,0,0,0,0,0,0,0,0,W
18/4/2021 12:53:9,0,0,0,0,0,0,0,0,0,0,0,0,0,0,0,0,0,0,0,0,0,0,0,W
18/4/2021 12:53:9,0,0,0,0,0,0,0,0,0,0,0,258.6,000.0,E,014.5,W,0,0,0,0,0,0,0
18/4/2021 12:53:10,0,0,0,0,0,0,0,0,0,0,0,258.1,000.0,E,014.5,W,0,0,0,0,0,0,0
18/4/2021 12:53:11,0,0,0,0,0,338.5,353.0,0.00,0.00,0,0,0,0,0,0,0,0,0,0,0,0,0,0
18/4/2021 12:53:12,0,0,0,0,0,0,0,0,0,0,0,0,0,0,0,0,0,0,0,0,0,0,0,W
18/4/2021 12:53:13,0,0,0,0,0,0,0,0,0,0,0,255.7,000.0,E,014.5,W,0,0,0,0,0,0,0
18/4/2021 12:53:14,0,0,0,0,0,0,0,0,0,0,0,257.4,000.0,E,014.5,W,0,0,0,0,0,0,0
18/4/2021 12:53:15,0,0,0,0,0,0,0,0,0,0,0,259.1,000.0,E,014.5,W,0,0,0,0,0,0,0
18/4/2021 12:53:17,0,0,0,0,0,0,0,0,0,0,0,260.1,000.0,E,014.5,W,0,0,0,0,0,0,0
18/4/2021 12:53:18,0,0,0,0,0,0,0,0,0,0,0,259.9,000.0,E,014.5,W,0,0,0,0,0,0,0
18/4/2021 12:53:20,0,0,0,0,0,0,0,0,0,0,0,266.3,000.0,E,014.5,W,0,0,0,0,0,0,0
18/4/2021 12:53:21,0,0,0,0,0,0,0,0,0,0,0,266.1,000.0,E,014.5,W,0,0,0,0,0,0,0
18/4/2021 12:53:26,0,0,0,0,0,0,0,0,0,0,0,263.4,000.0,E,014.5,W,0,0,0,0,0,0,0
18/4/2021 12:53:26,0,0,0,0,0,0,0,0,0,0,0,264.3,000.0,E,014.5,W,0,0,0,0,0,0,0
18/4/2021 12:53:26,0,0,0,0,0,0,0,0,0,0,0,266.0,000.0,E,014.5,W,0,0,0,0,0,0,0
18/4/2021 12:53:26,0,0,0,0,0,0,0,0,0,0,0,268.6,000.0,E,014.5,W,0,0,0,0,0,0,0
18/4/2021 12:53:26,0,0,0,0,0,0,0,0,0,0,0,0,0,0,0,0,0,0,0,0,0,0,0,W
18/4/2021 12:53:27,0,0,0,0,0,0,0,0,0,0,0,283.8,000.0,E,014.5,W,0,0,0,0,0,0,0
18/4/2021 12:53:31,0,0,0,0,0,0,0,0,0,0,0,0,0,0,0,0,0,0,0,0,0,0,0,W
18/4/2021 12:53:32,0,0,0,0,0,119.4,133.9,0.10,0.18,0,0,0,0,0,0,0,0,0,0,0,0,0,0
18/4/2021 12:53:33,0,0,0,0,0,130.8,145.3,0.10,0.18,0,0,0,0,0,0,0,0,0,0,0,0,0,0
18/4/2021 12:53:34,0,0,0,0,0,179.6,194.1,0.10,0.18,0,0,0,0,0,0,0,0,0,0,0,0,0,0
18/4/2021 12:53:35,0,0,0,0,0,0,0,0,0,0,0,277.4,000.0,E,014.5,W,0,0,0,0,0,0,0
18/4/2021 12:53:36,0,0,0,0,0,0,0,0,0,0,0,277.1,000.0,E,014.5,W,0,0,0,0,0,0,0
18/4/2021 12:53:36,0,0,0,0,0,0,0,0,0,0,0,276.3,000.0,E,014.5,W,0,0,0,0,0,0,0
18/4/2021 12:53:36,0,0,0,0,0,0,0,0,0,0,0,276.5,000.0,E,014.5,W,0,0,0,0,0,0,0
18/4/2021 12:53:37,0,0,0,0,0,0,0,0,0,0,0,0,0,0,0,0,0,0,0,0,0,0,0,W
18/4/2021 12:53:39,0,0,0,0,0,0,0,0,0,0,0,279.1,000.0,E,014.5,W,0,0,0,0,0,0,0
18/4/2021 12:53:39,0,0,0,0,0,0,0,0,0,0,0,0,0,0,0,0,0,0,0,0,0,0,0,W
18/4/2021 12:53:40,0,0,0,0,0,0,0,0,0,0,0,274.3,000.0,E,014.5,W,0,0,0,0,0,0,0
18/4/2021 12:53:41,0,0,0,0,0,0,0,0,0,0,0,269.9,000.0,E,014.5,W,0,0,0,0,0,0,0
18/4/2021 12:53:41,0,0,0,0,0,0,0,0,0,0,0,270.2,000.0,E,014.5,W,0,0,0,0,0,0,0
18/4/2021 12:53:42,0,0,0,0,0,0,0,0,0,0,0,274.1,000.0,E,014.5,W,0,0,0,0,0,0,0
18/4/2021 12:53:42,0,0,0,0,0,309.6,324.1,0.19,0.36,0,0,0,0,0,0,0,0,0,0,0,0,0,0
18/4/2021 12:53:43,0,0,0,0,0,261.0,275.5,0.19,0.36,0,0,0,0,0,0,0,0,0,0,0,0,0,0
18/4/2021 12:53:44,0,0,0,0,0,0,0,0,0,0,0,278.7,000.0,E,014.5,W,0,0,0,0,0,0,0
18/4/2021 12:53:44,0,0,0,0,0,0,0,0,0,0,0,0,0,0,0,0,0,0,0,0,0,0,0,W
18/4/2021 12:53:44,0,0,0,0,0,0,0,0,0,0,0,0,0,0,0,0,0,0,0,0,0,0,0,W
18/4/2021 12:53:44,0,0,0,0,0,260.1,274.6,0.10,0.18,0,0,0,0,0,0,0,0,0,0,0,0,0,0
18/4/2021 12:53:45,0,0,0,0,0,0,0,0,0,0,0,0,0,0,0,0,0,0,0,0,0,0,0,W
18/4/2021 12:53:45,0,0,0,0,0,0,0,0,0,0,0,0,0,0,0,0,0,0,0,0,0,0,0,W
18/4/2021 12:53:46,0,0,0,0,0,0,0,0,0,0,0,278.3,000.0,E,014.5,W,0,0,0,0,0,0,0
18/4/2021 12:53:46,0,0,0,0,0,0,0,0,0,0,0,0,0,0,0,0,0,0,0,0,0,0,0,W
18/4/2021 12:53:47,0,0,0,0,0,0,0,0,0,0,0,275.0,000.0,E,014.5,W,0,0,0,0,0,0,0
18/4/2021 12:53:50,0,0,0,0,0,0,0,0,0,0,0,271.7,000.0,E,014.5,W,0,0,0,0,0,0,0
18/4/2021 12:53:52,0,0,0,0,0,0,0,0,0,0,0,270.9,000.0,E,014.5,W,0,0,0,0,0,0,0
18/4/2021 12:53:54,0,0,0,0,0,0,0,0,0,0,0,270.9,000.0,E,014.5,W,0,0,0,0,0,0,0
18/4/2021 12:53:54,0,0,0,0,0,004.9,019.4,0.10,0.18,0,0,0,0,0,0,0,0,0,0,0,0,0,0
18/4/2021 12:53:57,0,0,0,0,0,255.0,269.5,0.19,0.36,0,0,0,0,0,0,0,0,0,0,0,0,0,0
18/4/2021 12:53:57,0,0,0,0,0,0,0,0,0,0,0,0,0,0,0,0,0,0,0,0,0,0,0,W
18/4/2021 12:53:58,0,0,0,0,0,0,0,0,0,0,0,268.8,000.0,E,014.5,W,0,0,0,0,0,0,0
18/4/2021 12:53:58,0,0,0,0,0,206.3,220.8,0.10,0.18,0,0,0,0,0,0,0,0,0,0,0,0,0,0
18/4/2021 12:53:59,0,0,0,0,0,0,0,0,0,0,0,267.3,000.0,E,014.5,W,0,0,0,0,0,0,0
18/4/2021 12:54:1,0,0,0,0,0,0,0,0,0,0,0,270.4,000.0,E,014.5,W,0,0,0,0,0,0,0
18/4/2021 12:54:1,0,0,0,0,0,0,0,0,0,0,0,0,0,0,0,0,0,0,0,0,0,0,0,W
18/4/2021 12:54:2,0,0,0,0,0,0,0,0,0,0,0,270.8,000.0,E,014.5,W,0,0,0,0,0,0,0
18/4/2021 12:54:3,0,0,0,0,0,0,0,0,0,0,0,272.1,000.0,E,014.5,W,0,0,0,0,0,0,0
18/4/2021 12:54:4,0,0,0,0,0,0,0,0,0,0,0,272.5,000.0,E,014.5,W,0,0,0,0,0,0,0
18/4/2021 12:54:5,0,0,0,0,0,309.1,323.6,0.10,0.18,0,0,0,0,0,0,0,0,0,0,0,0,0,0
18/4/2021 12:54:10,0,0,0,0,0,0,0,0,0,0,0,266.2,000.0,E,014.5,W,0,0,0,0,0,0,0
18/4/2021 12:54:11,0,0,0,0,0,0,0,0,0,0,0,277.5,000.0,E,014.5,W,0,0,0,0,0,0,0
18/4/2021 12:54:14,0,0,0,0,0,0,0,0,0,0,0,295.7,000.0,E,014.5,W,0,0,0,0,0,0,0
18/4/2021 12:54:17,0,0,0,0,0,0,0,0,0,0,0,304.0,000.0,E,014.5,W,0,0,0,0,0,0,0
18/4/2021 12:54:21,0,0,0,0,0,234.2,248.7,0.19,0.36,0,0,0,0,0,0,0,0,0,0,0,0,0,0
18/4/2021 12:54:29,0,0,0,0,0,0,0,0,0,0,0,310.4,000.0,E,014.5,W,0,0,0,0,0,0,0
18/4/2021 12:54:29,0,0,0,0,0,0,0,0,0,0,0,310.9,000.0,E,014.5,W,0,0,0,0,0,0,0
18/4/2021 12:54:29,0,0,0,0,0,0,0,0,0,0,0,311.1,000.0,E,014.5,W,0,0,0,0,0,0,0
18/4/2021 12:54:30,0,0,0,0,0,223.8,238.3,0.00,0.00,0,0,0,0,0,0,0,0,0,0,0,0,0,0
18/4/2021 12:54:30,0,0,0,0,0,162.0,176.5,0.00,0.00,0,0,0,0,0,0,0,0,0,0,0,0,0,0
18/4/2021 12:54:31,0,0,0,0,0,0,0,0,0,0,0,311.4,000.0,E,014.5,W,0,0,0,0,0,0,0
18/4/2021 12:54:31,0,0,0,0,0,0,0,0,0,0,0,311.8,000.0,E,014.5,W,0,0,0,0,0,0,0
18/4/2021 12:54:35,0,0,0,0,0,0,0,0,0,0,0,312.8,000.0,E,014.5,W,0,0,0,0,0,0,0
18/4/2021 12:54:35,0,0,0,0,0,0,0,0,0,0,0,313.4,000.0,E,014.5,W,0,0,0,0,0,0,0
18/4/2021 12:54:36,0,0,0,0,0,0,0,0,0,0,0,0,0,0,0,0,0,0,0,0,0,0,0,W
18/4/2021 12:54:38,0,0,0,0,0,0,0,0,0,0,0,314.2,000.0,E,014.5,W,0,0,0,0,0,0,0
18/4/2021 12:54:40,0,0,0,0,0,0,0,0,0,0,0,315.9,000.0,E,014.5,W,0,0,0,0,0,0,0
18/4/2021 12:54:41,0,0,0,0,0,0,0,0,0,0,0,317.3,000.0,E,014.5,W,0,0,0,0,0,0,0
18/4/2021 12:54:43,0,0,0,0,0,0,0,0,0,0,0,324.6,000.0,E,014.5,W,0,0,0,0,0,0,0
18/4/2021 12:54:44,0,0,0,0,0,0,0,0,0,0,0,324.8,000.0,E,014.5,W,0,0,0,0,0,0,0
18/4/2021 12:54:48,0,0,0,0,0,0,0,0,0,0,0,0,0,0,0,0,0,0,0,0,0,0,0,W
18/4/2021 12:54:48,0,0,0,0,0,025.0,039.5,0.00,0.00,0,0,0,0,0,0,0,0,0,0,0,0,0,0
18/4/2021 12:54:55,0,0,0,0,0,0,0,0,0,0,0,319.4,000.0,E,014.5,W,0,0,0,0,0,0,0
18/4/2021 12:54:57,0,0,0,0,0,0,0,0,0,0,0,317.0,000.0,E,014.5,W,0,0,0,0,0,0,0
18/4/2021 12:54:59,0,0,0,0,0,0,0,0,0,0,0,318.1,000.0,E,014.5,W,0,0,0,0,0,0,0
18/4/2021 12:55:1,0,0,0,0,0,0,0,0,0,0,0,317.8,000.0,E,014.5,W,0,0,0,0,0,0,0
18/4/2021 12:55:1,0,0,0,0,0,351.2,365.7,0.00,0.00,0,0,0,0,0,0,0,0,0,0,0,0,0,0
18/4/2021 12:55:1,0,0,0,0,0,0,0,0,0,0,0,318.6,000.0,E,014.5,W,0,0,0,0,0,0,0
18/4/2021 12:55:2,0,0,0,0,0,349.0,363.5,0.10,0.18,0,0,0,0,0,0,0,0,0,0,0,0,0,0
18/4/2021 12:55:3,0,0,0,0,0,0,0,0,0,0,0,318.7,000.0,E,014.5,W,0,0,0,0,0,0,0
18/4/2021 12:55:5,0,0,0,0,0,0,0,0,0,0,0,317.9,000.0,E,014.5,W,0,0,0,0,0,0,0
18/4/2021 12:55:5,0,0,0,0,0,0,0,0,0,0,0,317.2,000.0,E,014.5,W,0,0,0,0,0,0,0
18/4/2021 12:55:7,0,0,0,0,0,0,0,0,0,0,0,317.6,000.0,E,014.5,W,0,0,0,0,0,0,0
18/4/2021 12:55:9,0,0,0,0,0,307.6,322.1,0.00,0.00,0,0,0,0,0,0,0,0,0,0,0,0,0,0
18/4/2021 12:55:12,0,0,0,0,0,0,0,0,0,0,0,320.8,000.0,E,014.5,W,0,0,0,0,0,0,0
18/4/2021 12:55:12,0,0,0,0,0,0,0,0,0,0,0,319.4,000.0,E,014.5,W,0,0,0,0,0,0,0
18/4/2021 12:55:12,0,0,0,0,0,0,0,0,0,0,0,318.7,000.0,E,014.5,W,0,0,0,0,0,0,0
18/4/2021 12:55:13,0,0,0,0,0,0,0,0,0,0,0,318.2,000.0,E,014.5,W,0,0,0,0,0,0,0
18/4/2021 12:55:14,0,0,0,0,0,0,0,0,0,0,0,318.2,000.0,E,014.5,W,0,0,0,0,0,0,0
18/4/2021 12:55:15,0,0,0,0,0,347.4,361.9,0.00,0.00,0,0,0,0,0,0,0,0,0,0,0,0,0,0
18/4/2021 12:55:15,0,0,0,0,0,0,0,0,0,0,0,321.3,000.0,E,014.5,W,0,0,0,0,0,0,0
18/4/2021 12:55:20,0,0,0,0,0,0,0,0,0,0,0,316.2,000.0,E,014.5,W,0,0,0,0,0,0,0
18/4/2021 12:55:20,0,0,0,0,0,0,0,0,0,0,0,314.1,000.0,E,014.5,W,0,0,0,0,0,0,0
18/4/2021 12:55:24,0,0,0,0,0,052.0,066.5,0.00,0.00,0,0,0,0,0,0,0,0,0,0,0,0,0,0
18/4/2021 12:55:25,0,0,0,0,0,0,0,0,0,0,0,314.0,000.0,E,014.5,W,0,0,0,0,0,0,0
18/4/2021 12:55:26,0,0,0,0,0,0,0,0,0,0,0,313.2,000.0,E,014.5,W,0,0,0,0,0,0,0
18/4/2021 12:55:28,0,0,0,0,0,0,0,0,0,0,0,0,0,0,0,0,0,0,0,0,0,0,0,W
18/4/2021 12:55:29,0,0,0,0,0,0,0,0,0,0,0,305.8,000.0,E,014.5,W,0,0,0,0,0,0,0
18/4/2021 12:55:33,0,0,0,0,0,0,0,0,0,0,0,307.8,000.0,E,014.5,W,0,0,0,0,0,0,0
18/4/2021 12:55:33,0,0,0,0,0,293.0,307.5,0.00,0.00,0,0,0,0,0,0,0,0,0,0,0,0,0,0
18/4/2021 12:55:35,0,0,0,0,0,0,0,0,0,0,0,308.9,000.0,E,014.5,W,0,0,0,0,0,0,0
18/4/2021 12:55:35,0,0,0,0,0,0,0,0,0,0,0,309.0,000.0,E,014.5,W,0,0,0,0,0,0,0
18/4/2021 12:55:36,0,0,0,0,0,0,0,0,0,0,0,309.9,000.0,E,014.5,W,0,0,0,0,0,0,0
18/4/2021 12:55:36,0,0,0,0,0,0,0,0,0,0,0,310.4,000.0,E,014.5,W,0,0,0,0,0,0,0
18/4/2021 12:55:37,0,0,0,0,0,0,0,0,0,0,0,310.6,000.0,E,014.5,W,0,0,0,0,0,0,0
18/4/2021 12:55:37,0,0,0,0,0,0,0,0,0,0,0,311.0,000.0,E,014.5,W,0,0,0,0,0,0,0
18/4/2021 12:55:37,0,0,0,0,0,0,0,0,0,0,0,0,0,0,0,0,0,0,0,0,0,0,0,W
18/4/2021 12:55:39,0,0,0,0,0,317.4,331.9,0.10,0.18,0,0,0,0,0,0,0,0,0,0,0,0,0,0
18/4/2021 12:55:40,0,0,0,0,0,0,0,0,0,0,0,308.5,000.0,E,014.5,W,0,0,0,0,0,0,0
18/4/2021 12:55:42,0,0,0,0,0,0,0,0,0,0,0,306.5,000.0,E,014.5,W,0,0,0,0,0,0,0
18/4/2021 12:55:43,0,0,0,0,0,0,0,0,0,0,0,306.3,000.0,E,014.5,W,0,0,0,0,0,0,0
18/4/2021 12:55:43,0,0,0,0,0,0,0,0,0,0,0,305.8,000.0,E,014.5,W,0,0,0,0,0,0,0
18/4/2021 12:55:46,0,0,0,0,0,0,0,0,0,0,0,304.0,000.0,E,014.5,W,0,0,0,0,0,0,0
18/4/2021 12:55:46,0,0,0,0,0,0,0,0,0,0,0,304.2,000.0,E,014.5,W,0,0,0,0,0,0,0
18/4/2021 12:55:47,0,0,0,0,0,0,0,0,0,0,0,306.2,000.0,E,014.5,W,0,0,0,0,0,0,0
18/4/2021 12:55:49,0,0,0,0,0,186.1,200.6,0.10,0.18,0,0,0,0,0,0,0,0,0,0,0,0,0,0
18/4/2021 12:55:51,0,0,0,0,0,0,0,0,0,0,0,309.7,000.0,E,014.5,W,0,0,0,0,0,0,0
18/4/2021 12:55:51,0,0,0,0,0,0,0,0,0,0,0,309.7,000.0,E,014.5,W,0,0,0,0,0,0,0
18/4/2021 12:55:52,0,0,0,0,0,156.4,170.9,0.10,0.18,0,0,0,0,0,0,0,0,0,0,0,0,0,0
18/4/2021 12:55:53,0,0,0,0,0,0,0,0,0,0,0,310.2,000.0,E,014.5,W,0,0,0,0,0,0,0
18/4/2021 12:55:57,0,0,0,0,0,0,0,0,0,0,0,0,0,0,0,0,0,0,0,0,0,0,0,W
18/4/2021 12:55:58,0,0,0,0,0,0,0,0,0,0,0,311.5,000.0,E,014.5,W,0,0,0,0,0,0,0
18/4/2021 12:55:58,0,0,0,0,0,0,0,0,0,0,0,311.7,000.0,E,014.5,W,0,0,0,0,0,0,0
18/4/2021 12:56:1,0,0,0,0,0,156.8,171.3,0.19,0.36,0,0,0,0,0,0,0,0,0,0,0,0,0,0
18/4/2021 12:56:3,0,0,0,0,0,159.2,173.7,0.10,0.18,0,0,0,0,0,0,0,0,0,0,0,0,0,0
18/4/2021 12:56:4,0,0,0,0,0,0,0,0,0,0,0,311.6,000.0,E,014.5,W,0,0,0,0,0,0,0
18/4/2021 12:56:6,0,0,0,0,0,138.7,153.2,0.10,0.18,0,0,0,0,0,0,0,0,0,0,0,0,0,0
18/4/2021 12:56:7,0,0,0,0,0,0,0,0,0,0,0,308.8,000.0,E,014.5,W,0,0,0,0,0,0,0
18/4/2021 12:56:7,0,0,0,0,0,0,0,0,0,0,0,307.8,000.0,E,014.5,W,0,0,0,0,0,0,0
18/4/2021 12:56:8,0,0,0,0,0,102.2,116.7,0.10,0.18,0,0,0,0,0,0,0,0,0,0,0,0,0,0
18/4/2021 12:56:8,0,0,0,0,0,0,0,0,0,0,0,0,0,0,0,0,0,0,0,0,0,0,0,W
18/4/2021 12:56:10,0,0,0,0,0,0,0,0,0,0,0,304.7,000.0,E,014.5,W,0,0,0,0,0,0,0
18/4/2021 12:56:11,0,0,0,0,0,0,0,0,0,0,0,305.7,000.0,E,014.5,W,0,0,0,0,0,0,0
18/4/2021 12:56:12,0,0,0,0,0,0,0,0,0,0,0,0,0,0,0,0,0,0,0,0,0,0,0,W
18/4/2021 12:56:12,0,0,0,0,0,291.2,305.7,0.10,0.18,0,0,0,0,0,0,0,0,0,0,0,0,0,0
18/4/2021 12:56:14,0,0,0,0,0,0,0,0,0,0,0,308.1,000.0,E,014.5,W,0,0,0,0,0,0,0
18/4/2021 12:56:14,0,0,0,0,0,0,0,0,0,0,0,308.5,000.0,E,014.5,W,0,0,0,0,0,0,0
18/4/2021 12:56:16,0,0,0,0,0,0,0,0,0,0,0,0,0,0,0,0,0,0,0,0,0,0,0,W
18/4/2021 12:56:18,0,0,0,0,0,277.9,292.4,0.10,0.18,0,0,0,0,0,0,0,0,0,0,0,0,0,0
18/4/2021 12:56:19,0,0,0,0,0,0,0,0,0,0,0,313.5,000.0,E,014.5,W,0,0,0,0,0,0,0
18/4/2021 12:56:21,0,0,0,0,0,0,0,0,0,0,0,0,0,0,0,0,0,0,0,0,0,0,0,W
18/4/2021 12:56:21,0,0,0,0,0,0,0,0,0,0,0,314.5,000.0,E,014.5,W,0,0,0,0,0,0,0
18/4/2021 12:56:22,0,0,0,0,0,0,0,0,0,0,0,313.9,000.0,E,014.5,W,0,0,0,0,0,0,0
18/4/2021 12:56:24,0,0,0,0,0,0,0,0,0,0,0,0,0,0,0,0,0,0,0,0,0,0,0,W
18/4/2021 12:56:25,0,0,0,0,0,0,0,0,0,0,0,312.4,000.0,E,014.5,W,0,0,0,0,0,0,0
18/4/2021 12:56:25,0,0,0,0,0,0,0,0,0,0,0,311.4,000.0,E,014.5,W,0,0,0,0,0,0,0
18/4/2021 12:56:26,0,0,0,0,0,0,0,0,0,0,0,310.5,000.0,E,014.5,W,0,0,0,0,0,0,0
18/4/2021 12:56:27,0,0,0,0,0,0,0,0,0,0,0,0,0,0,0,0,0,0,0,0,0,0,0,W
18/4/2021 12:56:28,0,0,0,0,0,0,0,0,0,0,0,309.0,000.0,E,014.5,W,0,0,0,0,0,0,0
18/4/2021 12:56:28,0,0,0,0,0,0,0,0,0,0,0,308.8,000.0,E,014.5,W,0,0,0,0,0,0,0
18/4/2021 12:56:29,0,0,0,0,0,0,0,0,0,0,0,0,0,0,0,0,0,0,0,0,0,0,0,W
18/4/2021 12:56:32,0,0,0,0,0,0,0,0,0,0,0,0,0,0,0,0,0,0,0,0,0,0,0,W
18/4/2021 12:56:32,0,0,0,0,0,0,0,0,0,0,0,0,0,0,0,0,0,0,0,0,0,0,0,W
18/4/2021 12:56:33,0,0,0,0,0,023.8,038.3,0.00,0.00,0,0,0,0,0,0,0,0,0,0,0,0,0,0
18/4/2021 12:56:34,0,0,0,0,0,0,0,0,0,0,0,303.6,000.0,E,014.5,W,0,0,0,0,0,0,0
18/4/2021 12:56:34,0,0,0,0,0,0,0,0,0,0,0,302.2,000.0,E,014.5,W,0,0,0,0,0,0,0
18/4/2021 12:56:34,0,0,0,0,0,0,0,0,0,0,0,302.4,000.0,E,014.5,W,0,0,0,0,0,0,0
18/4/2021 12:56:36,0,0,0,0,0,0,0,0,0,0,0,301.3,000.0,E,014.5,W,0,0,0,0,0,0,0
18/4/2021 12:56:37,0,0,0,0,0,0,0,0,0,0,0,0,0,0,0,0,0,0,0,0,0,0,0,W
18/4/2021 12:56:38,0,0,0,0,0,0,0,0,0,0,0,301.0,000.0,E,014.5,W,0,0,0,0,0,0,0
18/4/2021 12:56:40,0,0,0,0,0,0,0,0,0,0,0,300.9,000.0,E,014.5,W,0,0,0,0,0,0,0
18/4/2021 12:56:40,0,0,0,0,0,0,0,0,0,0,0,0,0,0,0,0,0,0,0,0,0,0,0,W
18/4/2021 12:56:41,0,0,0,0,0,186.7,201.2,0.10,0.18,0,0,0,0,0,0,0,0,0,0,0,0,0,0
18/4/2021 12:56:42,0,0,0,0,0,0,0,0,0,0,0,0,0,0,0,0,0,0,0,0,0,0,0,W
18/4/2021 12:56:43,0,0,0,0,0,0,0,0,0,0,0,305.3,000.0,E,014.5,W,0,0,0,0,0,0,0
18/4/2021 12:56:43,0,0,0,0,0,0,0,0,0,0,0,0,0,0,0,0,0,0,0,0,0,0,0,W
18/4/2021 12:56:45,0,0,0,0,0,234.6,249.1,0.10,0.18,0,0,0,0,0,0,0,0,0,0,0,0,0,0
18/4/2021 12:56:47,0,0,0,0,0,0,0,0,0,0,0,311.3,000.0,E,014.5,W,0,0,0,0,0,0,0
18/4/2021 12:56:47,0,0,0,0,0,0,0,0,0,0,0,311.1,000.0,E,014.5,W,0,0,0,0,0,0,0
18/4/2021 12:56:47,0,0,0,0,0,0,0,0,0,0,0,311.1,000.0,E,014.5,W,0,0,0,0,0,0,0
18/4/2021 12:56:48,0,0,0,0,0,0,0,0,0,0,0,311.6,000.0,E,014.5,W,0,0,0,0,0,0,0
18/4/2021 12:56:48,0,0,0,0,0,0,0,0,0,0,0,311.8,000.0,E,014.5,W,0,0,0,0,0,0,0
18/4/2021 12:56:49,0,0,0,0,0,0,0,0,0,0,0,0,0,0,0,0,0,0,0,0,0,0,0,W
18/4/2021 12:56:51,0,0,0,0,0,0,0,0,0,0,0,311.8,000.0,E,014.5,W,0,0,0,0,0,0,0
18/4/2021 12:56:51,0,0,0,0,0,0,0,0,0,0,0,311.4,000.0,E,014.5,W,0,0,0,0,0,0,0
18/4/2021 12:56:54,0,0,0,0,0,294.6,309.1,0.00,0.00,0,0,0,0,0,0,0,0,0,0,0,0,0,0
18/4/2021 12:56:55,0,0,0,0,0,0,0,0,0,0,0,0,0,0,0,0,0,0,0,0,0,0,0,W
18/4/2021 12:56:55,0,0,0,0,0,321.1,335.6,0.00,0.00,0,0,0,0,0,0,0,0,0,0,0,0,0,0
18/4/2021 12:56:56,0,0,0,0,0,298.2,312.7,0.00,0.00,0,0,0,0,0,0,0,0,0,0,0,0,0,0
18/4/2021 12:56:56,0,0,0,0,0,0,0,0,0,0,0,307.6,000.0,E,014.5,W,0,0,0,0,0,0,0
18/4/2021 12:56:57,0,0,0,0,0,0,0,0,0,0,0,307.0,000.0,E,014.5,W,0,0,0,0,0,0,0
18/4/2021 12:56:58,0,0,0,0,0,0,0,0,0,0,0,307.2,000.0,E,014.5,W,0,0,0,0,0,0,0
18/4/2021 12:56:59,0,0,0,0,0,0,0,0,0,0,0,0,0,0,0,0,0,0,0,0,0,0,0,W
18/4/2021 12:57:2,0,0,0,0,0,0,0,0,0,0,0,308.6,000.0,E,014.5,W,0,0,0,0,0,0,0
18/4/2021 12:57:3,0,0,0,0,0,223.0,237.5,0.00,0.00,0,0,0,0,0,0,0,0,0,0,0,0,0,0
18/4/2021 12:57:4,0,0,0,0,0,0,0,0,0,0,0,309.5,000.0,E,014.5,W,0,0,0,0,0,0,0
18/4/2021 12:57:4,0,0,0,0,0,0,0,0,0,0,0,309.6,000.0,E,014.5,W,0,0,0,0,0,0,0
18/4/2021 12:57:5,0,0,0,0,0,0,0,0,0,0,0,310.5,000.0,E,014.5,W,0,0,0,0,0,0,0
18/4/2021 12:57:5,0,0,0,0,0,0,0,0,0,0,0,310.6,000.0,E,014.5,W,0,0,0,0,0,0,0
18/4/2021 12:57:6,0,0,0,0,0,237.9,252.4,0.10,0.18,0,0,0,0,0,0,0,0,0,0,0,0,0,0
18/4/2021 13:8:43,0,0,0,0,0,0,0,0,0,0,0,0,0,0,0,0,0,0,0,0,0,0,0,W
18/4/2021 13:8:43,0,0,0,0,0,0,0,0,0,0,0,321.0,000.0,E,014.5,W,0,0,0,0,0,0,0
18/4/2021 13:8:43,0,0,0,0,0,0,0,0,0,0,0,320.8,000.0,E,014.5,W,0,0,0,0,0,0,0
18/4/2021 13:8:44,0,0,0,0,0,159.6,174.1,0.00,0.00,0,0,0,0,0,0,0,0,0,0,0,0,0,0
18/4/2021 13:8:44,0,0,0,0,0,0,0,0,0,0,0,320.3,000.0,E,014.5,W,0,0,0,0,0,0,0
18/4/2021 13:8:47,0,0,0,0,0,0,0,0,0,0,0,0,0,0,0,0,0,0,0,0,0,0,0,W
18/4/2021 13:8:48,0,0,0,0,0,0,0,0,0,0,0,320.4,000.0,E,014.5,W,0,0,0,0,0,0,0
18/4/2021 13:8:48,0,0,0,0,0,0,0,0,0,0,0,320.5,000.0,E,014.5,W,0,0,0,0,0,0,0
18/4/2021 13:8:48,0,0,0,0,0,0,0,0,0,0,0,0,0,0,0,0,0,0,0,0,0,0,0,W
18/4/2021 13:8:49,0,0,0,0,0,0,0,0,0,0,0,319.8,000.0,E,014.5,W,0,0,0,0,0,0,0
18/4/2021 13:8:51,0,0,0,0,0,0,0,0,0,0,0,0,0,0,0,0,0,0,0,0,0,0,0,W
18/4/2021 13:8:51,0,0,0,0,0,0,0,0,0,0,0,321.9,000.0,E,014.5,W,0,0,0,0,0,0,0
18/4/2021 13:8:51,0,0,0,0,0,0,0,0,0,0,0,322.1,000.0,E,014.5,W,0,0,0,0,0,0,0
18/4/2021 13:8:55,0,0,0,0,0,0,0,0,0,0,0,318.7,000.0,E,014.5,W,0,0,0,0,0,0,0
18/4/2021 13:8:59,0,0,0,0,0,0,0,0,0,0,0,319.7,000.0,E,014.5,W,0,0,0,0,0,0,0
18/4/2021 13:9:0,0,0,0,0,0,0,0,0,0,0,0,0,0,0,0,0,0,0,0,0,0,0,0,W
18/4/2021 13:9:3,0,0,0,0,0,0,0,0,0,0,0,319.5,000.0,E,014.5,W,0,0,0,0,0,0,0
18/4/2021 13:9:8,0,0,0,0,0,0,0,0,0,0,0,0,0,0,0,0,0,0,0,0,0,0,0,W
18/4/2021 13:9:9,0,0,0,0,0,0,0,0,0,0,0,316.0,000.0,E,014.5,W,0,0,0,0,0,0,0
18/4/2021 13:9:12,0,0,0,0,0,0,0,0,0,0,0,0,0,0,0,0,0,0,0,0,0,0,0,W
18/4/2021 13:9:13,0,0,0,0,0,0,0,0,0,0,0,316.3,000.0,E,014.5,W,0,0,0,0,0,0,0
18/4/2021 13:9:15,0,0,0,0,0,0,0,0,0,0,0,316.7,000.0,E,014.5,W,0,0,0,0,0,0,0
18/4/2021 13:9:15,0,0,0,0,0,0,0,0,0,0,0,0,0,0,0,0,0,0,0,0,0,0,0,W
18/4/2021 13:9:16,0,0,0,0,0,0,0,0,0,0,0,318.3,000.0,E,014.5,W,0,0,0,0,0,0,0
18/4/2021 13:9:17,0,0,0,0,0,0,0,0,0,0,0,318.1,000.0,E,014.5,W,0,0,0,0,0,0,0
18/4/2021 13:9:17,0,0,0,0,0,0,0,0,0,0,0,318.3,000.0,E,014.5,W,0,0,0,0,0,0,0
18/4/2021 13:9:18,0,0,0,0,0,0,0,0,0,0,0,319.0,000.0,E,014.5,W,0,0,0,0,0,0,0
18/4/2021 13:9:19,0,0,0,0,0,0,0,0,0,0,0,0,0,0,0,0,0,0,0,0,0,0,0,W
18/4/2021 13:9:21,0,0,0,0,0,0,0,0,0,0,0,319.4,000.0,E,014.5,W,0,0,0,0,0,0,0
18/4/2021 13:9:22,0,0,0,0,0,0,0,0,0,0,0,319.0,000.0,E,014.5,W,0,0,0,0,0,0,0
18/4/2021 13:9:22,0,0,0,0,0,0,0,0,0,0,0,0,0,0,0,0,0,0,0,0,0,0,0,W
18/4/2021 13:9:23,0,0,0,0,0,0,0,0,0,0,0,318.2,000.0,E,014.5,W,0,0,0,0,0,0,0
18/4/2021 13:9:24,0,0,0,0,0,0,0,0,0,0,0,0,0,0,0,0,0,0,0,0,0,0,0,W
18/4/2021 13:9:26,0,0,0,0,0,0,0,0,0,0,0,0,0,0,0,0,0,0,0,0,0,0,0,W
18/4/2021 13:9:27,0,0,0,0,0,0,0,0,0,0,0,0,0,0,0,0,0,0,0,0,0,0,0,W
18/4/2021 13:9:27,0,0,0,0,0,0,0,0,0,0,0,317.4,000.0,E,014.5,W,0,0,0,0,0,0,0
18/4/2021 13:9:28,0,0,0,0,0,0,0,0,0,0,0,316.7,000.0,E,014.5,W,0,0,0,0,0,0,0
18/4/2021 13:9:28,0,0,0,0,0,0,0,0,0,0,0,316.8,000.0,E,014.5,W,0,0,0,0,0,0,0
18/4/2021 13:9:29,0,0,0,0,0,0,0,0,0,0,0,0,0,0,0,0,0,0,0,0,0,0,0,W
18/4/2021 13:9:31,0,0,0,0,0,0,0,0,0,0,0,316.9,000.0,E,014.5,W,0,0,0,0,0,0,0
18/4/2021 13:9:31,0,0,0,0,0,306.6,321.1,0.10,0.18,0,0,0,0,0,0,0,0,0,0,0,0,0,0
18/4/2021 13:9:32,0,0,0,0,0,0,0,0,0,0,0,0,0,0,0,0,0,0,0,0,0,0,0,W
18/4/2021 13:9:33,0,0,0,0,0,0,0,0,0,0,0,318.1,000.0,E,014.5,W,0,0,0,0,0,0,0
18/4/2021 13:9:34,0,0,0,0,0,0,0,0,0,0,0,318.1,000.0,E,014.5,W,0,0,0,0,0,0,0
18/4/2021 13:9:36,0,0,0,0,0,0,0,0,0,0,0,0,0,0,0,0,0,0,0,0,0,0,0,W
18/4/2021 13:9:38,0,0,0,0,0,0,0,0,0,0,0,315.6,000.0,E,014.5,W,0,0,0,0,0,0,0
18/4/2021 13:9:38,0,0,0,0,0,0,0,0,0,0,0,315.8,000.0,E,014.5,W,0,0,0,0,0,0,0
18/4/2021 13:9:42,0,0,0,0,0,0,0,0,0,0,0,319.6,000.0,E,014.5,W,0,0,0,0,0,0,0
18/4/2021 13:9:42,0,0,0,0,0,0,0,0,0,0,0,319.8,000.0,E,014.5,W,0,0,0,0,0,0,0
18/4/2021 13:9:44,0,0,0,0,0,189.6,204.1,0.10,0.18,0,0,0,0,0,0,0,0,0,0,0,0,0,0
18/4/2021 13:9:45,0,0,0,0,0,0,0,0,0,0,0,0,0,0,0,0,0,0,0,0,0,0,0,W
18/4/2021 13:9:45,0,0,0,0,0,0,0,0,0,0,0,320.6,000.0,E,014.5,W,0,0,0,0,0,0,0
18/4/2021 13:9:46,0,0,0,0,0,0,0,0,0,0,0,320.5,000.0,E,014.5,W,0,0,0,0,0,0,0
18/4/2021 13:9:46,0,0,0,0,0,0,0,0,0,0,0,320.6,000.0,E,014.5,W,0,0,0,0,0,0,0
18/4/2021 13:9:48,0,0,0,0,0,0,0,0,0,0,0,319.6,000.0,E,014.5,W,0,0,0,0,0,0,0
18/4/2021 13:9:49,0,0,0,0,0,0,0,0,0,0,0,319.6,000.0,E,014.5,W,0,0,0,0,0,0,0
18/4/2021 13:9:49,0,0,0,0,0,0,0,0,0,0,0,0,0,0,0,0,0,0,0,0,0,0,0,W
18/4/2021 13:9:50,0,0,0,0,0,0,0,0,0,0,0,0,0,0,0,0,0,0,0,0,0,0,0,W
18/4/2021 13:9:50,0,0,0,0,0,0,0,0,0,0,0,0,0,0,0,0,0,0,0,0,0,0,0,W
18/4/2021 13:9:52,0,0,0,0,0,0,0,0,0,0,0,317.9,000.0,E,014.5,W,0,0,0,0,0,0,0
18/4/2021 13:9:53,0,0,0,0,0,0,0,0,0,0,0,317.7,000.0,E,014.5,W,0,0,0,0,0,0,0
18/4/2021 13:9:53,0,0,0,0,0,0,0,0,0,0,0,317.6,000.0,E,014.5,W,0,0,0,0,0,0,0
18/4/2021 13:9:55,0,0,0,0,0,0,0,0,0,0,0,318.3,000.0,E,014.5,W,0,0,0,0,0,0,0
18/4/2021 13:9:58,0,0,0,0,0,0,0,0,0,0,0,319.4,000.0,E,014.5,W,0,0,0,0,0,0,0
18/4/2021 13:9:59,0,0,0,0,0,0,0,0,0,0,0,320.0,000.0,E,014.5,W,0,0,0,0,0,0,0
18/4/2021 13:9:59,0,0,0,0,0,0,0,0,0,0,0,320.5,000.0,E,014.5,W,0,0,0,0,0,0,0
18/4/2021 13:10:1,0,0,0,0,0,0,0,0,0,0,0,0,0,0,0,0,0,0,0,0,0,0,0,W
18/4/2021 13:10:2,0,0,0,0,0,0,0,0,0,0,0,0,0,0,0,0,0,0,0,0,0,0,0,W
18/4/2021 13:10:2,0,0,0,0,0,0,0,0,0,0,0,320.9,000.0,E,014.5,W,0,0,0,0,0,0,0
18/4/2021 13:10:2,0,0,0,0,0,0,0,0,0,0,0,0,0,0,0,0,0,0,0,0,0,0,0,W
18/4/2021 13:10:3,0,0,0,0,0,0,0,0,0,0,0,320.1,000.0,E,014.5,W,0,0,0,0,0,0,0
18/4/2021 13:10:4,0,0,0,0,0,354.2,368.7,0.00,0.00,0,0,0,0,0,0,0,0,0,0,0,0,0,0
18/4/2021 13:10:5,0,0,0,0,0,304.5,319.0,0.00,0.00,0,0,0,0,0,0,0,0,0,0,0,0,0,0
18/4/2021 13:10:6,0,0,0,0,0,0,0,0,0,0,0,320.2,000.0,E,014.5,W,0,0,0,0,0,0,0
18/4/2021 13:10:7,0,0,0,0,0,0,0,0,0,0,0,318.7,000.0,E,014.5,W,0,0,0,0,0,0,0
18/4/2021 13:10:7,0,0,0,0,0,0,0,0,0,0,0,318.8,000.0,E,014.5,W,0,0,0,0,0,0,0
18/4/2021 13:10:8,0,0,0,0,0,0,0,0,0,0,0,318.2,000.0,E,014.5,W,0,0,0,0,0,0,0
18/4/2021 13:10:10,0,0,0,0,0,0,0,0,0,0,0,318.7,000.0,E,014.5,W,0,0,0,0,0,0,0
18/4/2021 13:10:10,0,0,0,0,0,0,0,0,0,0,0,0,0,0,0,0,0,0,0,0,0,0,0,W
18/4/2021 13:10:11,0,0,0,0,0,0,0,0,0,0,0,318.9,000.0,E,014.5,W,0,0,0,0,0,0,0
18/4/2021 13:10:11,0,0,0,0,0,0,0,0,0,0,0,319.1,000.0,E,014.5,W,0,0,0,0,0,0,0
18/4/2021 13:10:12,0,0,0,0,0,0,0,0,0,0,0,319.8,000.0,E,014.5,W,0,0,0,0,0,0,0
18/4/2021 13:10:13,0,0,0,0,0,141.3,155.8,0.10,0.18,0,0,0,0,0,0,0,0,0,0,0,0,0,0
18/4/2021 13:10:14,0,0,0,0,0,0,0,0,0,0,0,317.8,000.0,E,014.5,W,0,0,0,0,0,0,0
18/4/2021 13:10:14,0,0,0,0,0,219.3,233.8,0.10,0.18,0,0,0,0,0,0,0,0,0,0,0,0,0,0
18/4/2021 13:10:19,0,0,0,0,0,0,0,0,0,0,0,317.4,000.0,E,014.5,W,0,0,0,0,0,0,0
18/4/2021 13:10:20,0,0,0,0,0,0,0,0,0,0,0,319.9,000.0,E,014.5,W,0,0,0,0,0,0,0
18/4/2021 13:10:20,0,0,0,0,0,0,0,0,0,0,0,319.3,000.0,E,014.5,W,0,0,0,0,0,0,0
18/4/2021 13:10:20,0,0,0,0,0,128.2,142.7,0.10,0.18,0,0,0,0,0,0,0,0,0,0,0,0,0,0
18/4/2021 13:10:21,0,0,0,0,0,0,0,0,0,0,0,318.1,000.0,E,014.5,W,0,0,0,0,0,0,0
18/4/2021 13:10:22,0,0,0,0,0,0,0,0,0,0,0,314.3,000.0,E,014.5,W,0,0,0,0,0,0,0
18/4/2021 13:10:25,0,0,0,0,0,0,0,0,0,0,0,309.4,000.0,E,014.5,W,0,0,0,0,0,0,0
18/4/2021 13:10:26,0,0,0,0,0,0,0,0,0,0,0,313.1,000.0,E,014.5,W,0,0,0,0,0,0,0
18/4/2021 13:10:27,0,0,0,0,0,0,0,0,0,0,0,0,0,0,0,0,0,0,0,0,0,0,0,W
18/4/2021 13:10:28,0,0,0,0,0,0,0,0,0,0,0,315.3,000.0,E,014.5,W,0,0,0,0,0,0,0
18/4/2021 13:10:29,0,0,0,0,0,0,0,0,0,0,0,0,0,0,0,0,0,0,0,0,0,0,0,W
18/4/2021 13:10:29,0,0,0,0,0,0,0,0,0,0,0,315.8,000.0,E,014.5,W,0,0,0,0,0,0,0
18/4/2021 13:10:31,0,0,0,0,0,0,0,0,0,0,0,314.2,000.0,E,014.5,W,0,0,0,0,0,0,0
18/4/2021 13:10:31,0,0,0,0,0,043.4,057.9,0.10,0.18,0,0,0,0,0,0,0,0,0,0,0,0,0,0
18/4/2021 13:10:37,0,0,0,0,0,0,0,0,0,0,0,318.5,000.0,E,014.5,W,0,0,0,0,0,0,0
18/4/2021 13:10:37,0,0,0,0,0,0,0,0,0,0,0,318.5,000.0,E,014.5,W,0,0,0,0,0,0,0
18/4/2021 13:10:40,0,0,0,0,0,0,0,0,0,0,0,0,0,0,0,0,0,0,0,0,0,0,0,W
18/4/2021 13:10:41,0,0,0,0,0,0,0,0,0,0,0,0,0,0,0,0,0,0,0,0,0,0,0,W
18/4/2021 13:10:42,0,0,0,0,0,0,0,0,0,0,0,315.2,000.0,E,014.5,W,0,0,0,0,0,0,0
18/4/2021 13:10:43,0,0,0,0,0,0,0,0,0,0,0,315.4,000.0,E,014.5,W,0,0,0,0,0,0,0
18/4/2021 13:10:43,0,0,0,0,0,0,0,0,0,0,0,315.3,000.0,E,014.5,W,0,0,0,0,0,0,0
18/4/2021 13:10:45,0,0,0,0,0,306.3,320.8,0.00,0.00,0,0,0,0,0,0,0,0,0,0,0,0,0,0
18/4/2021 13:10:46,0,0,0,0,0,0,0,0,0,0,0,0,0,0,0,0,0,0,0,0,0,0,0,W
18/4/2021 13:10:46,0,0,0,0,0,030.3,044.8,0.10,0.18,0,0,0,0,0,0,0,0,0,0,0,0,0,0
18/4/2021 13:10:47,0,0,0,0,0,0,0,0,0,0,0,345.7,000.0,E,014.5,W,0,0,0,0,0,0,0
18/4/2021 13:10:47,0,0,0,0,0,0,0,0,0,0,0,0,0,0,0,0,0,0,0,0,0,0,0,W
18/4/2021 13:10:49,0,0,0,0,0,0,0,0,0,0,0,005.4,000.0,E,014.5,W,0,0,0,0,0,0,0
18/4/2021 13:10:51,0,0,0,0,0,0,0,0,0,0,0,032.1,000.0,E,014.5,W,0,0,0,0,0,0,0
18/4/2021 13:10:57,0,0,0,0,0,0,0,0,0,0,0,053.8,000.0,E,014.5,W,0,0,0,0,0,0,0
18/4/2021 13:11:0,0,0,0,0,0,0,0,0,0,0,0,051.8,000.0,E,014.5,W,0,0,0,0,0,0,0
18/4/2021 13:11:0,0,0,0,0,0,0,0,0,0,0,0,050.9,000.0,E,014.5,W,0,0,0,0,0,0,0
18/4/2021 13:11:2,0,0,0,0,0,0,0,0,0,0,0,046.4,000.0,E,014.5,W,0,0,0,0,0,0,0
18/4/2021 13:11:2,0,0,0,0,0,0,0,0,0,0,0,045.8,000.0,E,014.5,W,0,0,0,0,0,0,0
18/4/2021 13:11:2,0,0,0,0,0,031.5,046.0,0.19,0.36,0,0,0,0,0,0,0,0,0,0,0,0,0,0
18/4/2021 13:11:3,0,0,0,0,0,0,0,0,0,0,0,047.3,000.0,E,014.5,W,0,0,0,0,0,0,0
18/4/2021 13:11:9,0,0,0,0,0,0,0,0,0,0,0,072.8,000.0,E,014.5,W,0,0,0,0,0,0,0
18/4/2021 13:11:10,0,0,0,0,0,065.1,079.6,0.99,1.84,0,0,0,0,0,0,0,0,0,0,0,0,0,0
18/4/2021 13:11:11,0,0,0,0,0,0,0,0,0,0,0,075.4,000.0,E,014.5,W,0,0,0,0,0,0,0
18/4/2021 13:11:17,0,0,0,0,0,071.4,085.9,0.99,1.84,0,0,0,0,0,0,0,0,0,0,0,0,0,0
18/4/2021 13:11:17,0,0,0,0,0,0,0,0,0,0,0,096.8,000.0,E,014.5,W,0,0,0,0,0,0,0
18/4/2021 13:11:17,0,0,0,0,0,0,0,0,0,0,0,098.2,000.0,E,014.5,W,0,0,0,0,0,0,0
18/4/2021 13:11:18,0,0,0,0,0,0,0,0,0,0,0,098.3,000.0,E,014.5,W,0,0,0,0,0,0,0
18/4/2021 13:11:18,0,0,0,0,0,069.6,084.1,0.89,1.66,0,0,0,0,0,0,0,0,0,0,0,0,0,0
18/4/2021 13:11:19,0,0,0,0,0,0,0,0,0,0,0,0,0,0,0,0,0,0,0,0,0,0,0,W
18/4/2021 13:11:21,0,0,0,0,0,069.8,084.3,0.39,0.72,0,0,0,0,0,0,0,0,0,0,0,0,0,0
18/4/2021 13:11:24,0,0,0,0,0,0,0,0,0,0,0,099.8,000.0,E,014.5,W,0,0,0,0,0,0,0
18/4/2021 13:11:27,0,0,0,0,0,0,0,0,0,0,0,0,0,0,0,0,0,0,0,0,0,0,0,W
18/4/2021 13:11:27,0,0,0,0,0,0,0,0,0,0,0,130.5,000.0,E,014.5,W,0,0,0,0,0,0,0
18/4/2021 13:11:28,0,0,0,0,0,0,0,0,0,0,0,132.9,000.0,E,014.5,W,0,0,0,0,0,0,0
18/4/2021 13:11:28,0,0,0,0,0,241.3,255.8,0.10,0.18,0,0,0,0,0,0,0,0,0,0,0,0,0,0
18/4/2021 13:11:29,0,0,0,0,0,0,0,0,0,0,0,0,0,0,0,0,0,0,0,0,0,0,0,W
18/4/2021 13:11:31,0,0,0,0,0,0,0,0,0,0,0,0,0,0,0,0,0,0,0,0,0,0,0,W
18/4/2021 13:11:32,0,0,0,0,0,0,0,0,0,0,0,0,0,0,0,0,0,0,0,0,0,0,0,W
18/4/2021 13:11:33,0,0,0,0,0,0,0,0,0,0,0,175.1,000.0,E,014.5,W,0,0,0,0,0,0,0
18/4/2021 13:11:34,0,0,0,0,0,0,0,0,0,0,0,175.9,000.0,E,014.5,W,0,0,0,0,0,0,0
18/4/2021 13:11:34,0,0,0,0,0,0,0,0,0,0,0,175.4,000.0,E,014.5,W,0,0,0,0,0,0,0
18/4/2021 13:11:34,0,0,0,0,0,0,0,0,0,0,0,0,0,0,0,0,0,0,0,0,0,0,0,W
18/4/2021 13:11:35,0,0,0,0,0,0,0,0,0,0,0,175.4,000.0,E,014.5,W,0,0,0,0,0,0,0
18/4/2021 13:11:35,0,0,0,0,0,0,0,0,0,0,0,174.0,000.0,E,014.5,W,0,0,0,0,0,0,0
18/4/2021 13:11:36,0,0,0,0,0,246.0,260.5,0.10,0.18,0,0,0,0,0,0,0,0,0,0,0,0,0,0
18/4/2021 13:11:38,0,0,0,0,0,0,0,0,0,0,0,168.6,000.0,E,014.5,W,0,0,0,0,0,0,0
18/4/2021 13:11:43,0,0,0,0,0,0,0,0,0,0,0,172.1,000.0,E,014.5,W,0,0,0,0,0,0,0
18/4/2021 13:11:45,0,0,0,0,0,0,0,0,0,0,0,177.4,000.0,E,014.5,W,0,0,0,0,0,0,0
18/4/2021 13:11:45,0,0,0,0,0,0,0,0,0,0,0,180.0,000.0,E,014.5,W,0,0,0,0,0,0,0
18/4/2021 13:11:46,0,0,0,0,0,0,0,0,0,0,0,181.1,000.0,E,014.5,W,0,0,0,0,0,0,0
18/4/2021 13:11:47,0,0,0,0,0,0,0,0,0,0,0,184.3,000.0,E,014.5,W,0,0,0,0,0,0,0
18/4/2021 13:11:48,0,0,0,0,0,0,0,0,0,0,0,184.7,000.0,E,014.5,W,0,0,0,0,0,0,0
18/4/2021 13:11:49,0,0,0,0,0,0,0,0,0,0,0,0,0,0,0,0,0,0,0,0,0,0,0,W
18/4/2021 13:11:49,0,0,0,0,0,284.3,298.8,0.10,0.18,0,0,0,0,0,0,0,0,0,0,0,0,0,0
18/4/2021 13:11:51,0,0,0,0,0,289.9,304.4,0.10,0.18,0,0,0,0,0,0,0,0,0,0,0,0,0,0
18/4/2021 13:11:52,0,0,0,0,0,0,0,0,0,0,0,198.1,000.0,E,014.5,W,0,0,0,0,0,0,0
18/4/2021 13:11:52,0,0,0,0,0,0,0,0,0,0,0,0,0,0,0,0,0,0,0,0,0,0,0,W
18/4/2021 13:11:53,0,0,0,0,0,303.6,318.1,0.19,0.36,0,0,0,0,0,0,0,0,0,0,0,0,0,0
18/4/2021 13:11:54,0,0,0,0,0,0,0,0,0,0,0,196.1,000.0,E,014.5,W,0,0,0,0,0,0,0
18/4/2021 13:11:54,0,0,0,0,0,0,0,0,0,0,0,194.5,000.0,E,014.5,W,0,0,0,0,0,0,0
18/4/2021 13:11:54,0,0,0,0,0,0,0,0,0,0,0,192.9,000.0,E,014.5,W,0,0,0,0,0,0,0
18/4/2021 13:11:56,0,0,0,0,0,0,0,0,0,0,0,191.2,000.0,E,014.5,W,0,0,0,0,0,0,0
18/4/2021 13:11:59,0,0,0,0,0,0,0,0,0,0,0,0,0,0,0,0,0,0,0,0,0,0,0,W
18/4/2021 13:12:0,0,0,0,0,0,0,0,0,0,0,0,183.4,000.0,E,014.5,W,0,0,0,0,0,0,0
18/4/2021 13:12:0,0,0,0,0,0,156.5,171.0,0.19,0.36,0,0,0,0,0,0,0,0,0,0,0,0,0,0
18/4/2021 13:12:1,0,0,0,0,0,0,0,0,0,0,0,181.3,000.0,E,014.5,W,0,0,0,0,0,0,0
18/4/2021 13:12:2,0,0,0,0,0,142.5,157.0,0.29,0.54,0,0,0,0,0,0,0,0,0,0,0,0,0,0
18/4/2021 13:12:4,0,0,0,0,0,0,0,0,0,0,0,180.0,000.0,E,014.5,W,0,0,0,0,0,0,0
18/4/2021 13:12:4,0,0,0,0,0,0,0,0,0,0,0,180.1,000.0,E,014.5,W,0,0,0,0,0,0,0
18/4/2021 13:12:5,0,0,0,0,0,0,0,0,0,0,0,179.8,000.0,E,014.5,W,0,0,0,0,0,0,0
18/4/2021 13:12:5,0,0,0,0,0,0,0,0,0,0,0,179.7,000.0,E,014.5,W,0,0,0,0,0,0,0
18/4/2021 13:12:6,0,0,0,0,0,0,0,0,0,0,0,0,0,0,0,0,0,0,0,0,0,0,0,W
18/4/2021 13:12:9,0,0,0,0,0,0,0,0,0,0,0,190.8,000.0,E,014.5,W,0,0,0,0,0,0,0
18/4/2021 13:12:10,0,0,0,0,0,0,0,0,0,0,0,190.5,000.0,E,014.5,W,0,0,0,0,0,0,0
18/4/2021 13:12:11,0,0,0,0,0,0,0,0,0,0,0,190.0,000.0,E,014.5,W,0,0,0,0,0,0,0
18/4/2021 13:12:11,0,0,0,0,0,131.3,145.8,0.39,0.72,0,0,0,0,0,0,0,0,0,0,0,0,0,0
18/4/2021 13:12:11,0,0,0,0,0,0,0,0,0,0,0,191.4,000.0,E,014.5,W,0,0,0,0,0,0,0
18/4/2021 13:12:12,0,0,0,0,0,0,0,0,0,0,0,191.6,000.0,E,014.5,W,0,0,0,0,0,0,0
18/4/2021 13:12:13,0,0,0,0,0,0,0,0,0,0,0,0,0,0,0,0,0,0,0,0,0,0,0,W
18/4/2021 13:12:13,0,0,0,0,0,0,0,0,0,0,0,193.8,000.0,E,014.5,W,0,0,0,0,0,0,0
18/4/2021 13:12:14,0,0,0,0,0,0,0,0,0,0,0,0,0,0,0,0,0,0,0,0,0,0,0,W
18/4/2021 13:12:14,0,0,0,0,0,0,0,0,0,0,0,0,0,0,0,0,0,0,0,0,0,0,0,W
18/4/2021 13:12:17,0,0,0,0,0,0,0,0,0,0,0,194.6,000.0,E,014.5,W,0,0,0,0,0,0,0
18/4/2021 13:12:18,0,0,0,0,0,0,0,0,0,0,0,195.1,000.0,E,014.5,W,0,0,0,0,0,0,0
18/4/2021 13:12:18,0,0,0,0,0,165.9,180.4,0.19,0.36,0,0,0,0,0,0,0,0,0,0,0,0,0,0
18/4/2021 13:12:19,0,0,0,0,0,0,0,0,0,0,0,0,0,0,0,0,0,0,0,0,0,0,0,W
18/4/2021 13:12:22,0,0,0,0,0,0,0,0,0,0,0,186.4,000.0,E,014.5,W,0,0,0,0,0,0,0
18/4/2021 13:12:22,0,0,0,0,0,0,0,0,0,0,0,186.4,000.0,E,014.5,W,0,0,0,0,0,0,0
18/4/2021 13:12:23,0,0,0,0,0,0,0,0,0,0,0,186.9,000.0,E,014.5,W,0,0,0,0,0,0,0
18/4/2021 13:12:24,0,0,0,0,0,0,0,0,0,0,0,187.4,000.0,E,014.5,W,0,0,0,0,0,0,0
18/4/2021 13:12:25,0,0,0,0,0,0,0,0,0,0,0,0,0,0,0,0,0,0,0,0,0,0,0,W
18/4/2021 13:12:25,0,0,0,0,0,0,0,0,0,0,0,0,0,0,0,0,0,0,0,0,0,0,0,W
18/4/2021 13:12:26,0,0,0,0,0,0,0,0,0,0,0,0,0,0,0,0,0,0,0,0,0,0,0,W
18/4/2021 13:12:28,0,0,0,0,0,0,0,0,0,0,0,183.6,000.0,E,014.5,W,0,0,0,0,0,0,0
18/4/2021 13:12:31,0,0,0,0,0,0,0,0,0,0,0,177.0,000.0,E,014.5,W,0,0,0,0,0,0,0
18/4/2021 13:12:32,0,0,0,0,0,0,0,0,0,0,0,171.4,000.0,E,014.5,W,0,0,0,0,0,0,0
18/4/2021 13:12:33,0,0,0,0,0,0,0,0,0,0,0,163.9,000.0,E,014.5,W,0,0,0,0,0,0,0
18/4/2021 13:12:33,0,0,0,0,0,135.8,150.3,0.39,0.72,0,0,0,0,0,0,0,0,0,0,0,0,0,0
18/4/2021 13:12:34,0,0,0,0,0,134.5,149.0,0.39,0.72,0,0,0,0,0,0,0,0,0,0,0,0,0,0
18/4/2021 13:12:34,0,0,0,0,0,0,0,0,0,0,0,0,0,0,0,0,0,0,0,0,0,0,0,W
18/4/2021 13:12:35,0,0,0,0,0,0,0,0,0,0,0,152.9,000.0,E,014.5,W,0,0,0,0,0,0,0
18/4/2021 13:12:35,0,0,0,0,0,0,0,0,0,0,0,0,0,0,0,0,0,0,0,0,0,0,0,W
18/4/2021 13:12:35,0,0,0,0,0,122.0,136.5,0.39,0.72,0,0,0,0,0,0,0,0,0,0,0,0,0,0
18/4/2021 13:12:36,0,0,0,0,0,0,0,0,0,0,0,145.5,000.0,E,014.5,W,0,0,0,0,0,0,0
18/4/2021 13:12:36,0,0,0,0,0,0,0,0,0,0,0,0,0,0,0,0,0,0,0,0,0,0,0,W
18/4/2021 13:12:38,0,0,0,0,0,0,0,0,0,0,0,114.9,000.0,E,014.5,W,0,0,0,0,0,0,0
18/4/2021 13:12:41,0,0,0,0,0,103.1,117.6,0.19,0.36,0,0,0,0,0,0,0,0,0,0,0,0,0,0
18/4/2021 13:12:41,0,0,0,0,0,102.6,117.1,0.19,0.36,0,0,0,0,0,0,0,0,0,0,0,0,0,0
18/4/2021 13:12:42,0,0,0,0,0,0,0,0,0,0,0,088.2,000.0,E,014.5,W,0,0,0,0,0,0,0
18/4/2021 13:12:44,0,0,0,0,0,092.7,107.2,0.29,0.54,0,0,0,0,0,0,0,0,0,0,0,0,0,0
18/4/2021 13:12:44,0,0,0,0,0,0,0,0,0,0,0,0,0,0,0,0,0,0,0,0,0,0,0,W
18/4/2021 13:12:44,0,0,0,0,0,0,0,0,0,0,0,0,0,0,0,0,0,0,0,0,0,0,0,W
18/4/2021 13:12:45,0,0,0,0,0,0,0,0,0,0,0,093.8,000.0,E,014.5,W,0,0,0,0,0,0,0
18/4/2021 13:12:45,0,0,0,0,0,0,0,0,0,0,0,0,0,0,0,0,0,0,0,0,0,0,0,W
18/4/2021 13:12:47,0,0,0,0,0,082.0,096.5,0.29,0.54,0,0,0,0,0,0,0,0,0,0,0,0,0,0
18/4/2021 13:12:47,0,0,0,0,0,0,0,0,0,0,0,0,0,0,0,0,0,0,0,0,0,0,0,W
18/4/2021 13:12:47,0,0,0,0,0,075.5,090.0,0.39,0.72,0,0,0,0,0,0,0,0,0,0,0,0,0,0
18/4/2021 13:12:48,0,0,0,0,0,082.7,097.2,0.39,0.72,0,0,0,0,0,0,0,0,0,0,0,0,0,0
18/4/2021 13:12:50,0,0,0,0,0,0,0,0,0,0,0,117.3,000.0,E,014.5,W,0,0,0,0,0,0,0
18/4/2021 13:12:53,0,0,0,0,0,0,0,0,0,0,0,124.1,000.0,E,014.5,W,0,0,0,0,0,0,0
18/4/2021 13:12:53,0,0,0,0,0,083.5,098.0,0.39,0.72,0,0,0,0,0,0,0,0,0,0,0,0,0,0
18/4/2021 13:12:54,0,0,0,0,0,0,0,0,0,0,0,0,0,0,0,0,0,0,0,0,0,0,0,W
18/4/2021 13:12:54,0,0,0,0,0,0,0,0,0,0,0,131.6,000.0,E,014.5,W,0,0,0,0,0,0,0
18/4/2021 13:12:56,0,0,0,0,0,094.9,109.4,0.39,0.72,0,0,0,0,0,0,0,0,0,0,0,0,0,0
18/4/2021 13:12:57,0,0,0,0,0,0,0,0,0,0,0,145.1,000.0,E,014.5,W,0,0,0,0,0,0,0
18/4/2021 13:12:57,0,0,0,0,0,0,0,0,0,0,0,141.7,000.0,E,014.5,W,0,0,0,0,0,0,0
18/4/2021 13:12:58,0,0,0,0,0,0,0,0,0,0,0,0,0,0,0,0,0,0,0,0,0,0,0,W
18/4/2021 13:12:59,0,0,0,0,0,0,0,0,0,0,0,137.5,000.0,E,014.5,W,0,0,0,0,0,0,0
18/4/2021 13:12:59,0,0,0,0,0,0,0,0,0,0,0,143.3,000.0,E,014.5,W,0,0,0,0,0,0,0
18/4/2021 13:13:1,0,0,0,0,0,107.6,122.1,0.49,0.90,0,0,0,0,0,0,0,0,0,0,0,0,0,0
18/4/2021 13:13:1,0,0,0,0,0,0,0,0,0,0,0,136.7,000.0,E,014.5,W,0,0,0,0,0,0,0
18/4/2021 13:13:2,0,0,0,0,0,097.3,111.8,0.58,1.08,0,0,0,0,0,0,0,0,0,0,0,0,0,0
18/4/2021 13:13:2,0,0,0,0,0,0,0,0,0,0,0,133.2,000.0,E,014.5,W,0,0,0,0,0,0,0
18/4/2021 13:13:4,0,0,0,0,0,0,0,0,0,0,0,0,0,0,0,0,0,0,0,0,0,0,0,W
18/4/2021 13:13:5,0,0,0,0,0,0,0,0,0,0,0,0,0,0,0,0,0,0,0,0,0,0,0,W
18/4/2021 13:13:6,0,0,0,0,0,090.4,104.9,0.58,1.08,0,0,0,0,0,0,0,0,0,0,0,0,0,0
18/4/2021 13:13:6,0,0,0,0,0,0,0,0,0,0,0,0,0,0,0,0,0,0,0,0,0,0,0,W
18/4/2021 13:13:7,0,0,0,0,0,0,0,0,0,0,0,127.0,000.0,E,014.5,W,0,0,0,0,0,0,0
18/4/2021 13:13:8,0,0,0,0,0,0,0,0,0,0,0,111.6,000.0,E,014.5,W,0,0,0,0,0,0,0
18/4/2021 13:13:9,0,0,0,0,0,0,0,0,0,0,0,104.5,000.0,E,014.5,W,0,0,0,0,0,0,0
18/4/2021 13:13:9,0,0,0,0,0,0,0,0,0,0,0,0,0,0,0,0,0,0,0,0,0,0,0,W
18/4/2021 13:13:10,0,0,0,0,0,0,0,0,0,0,0,094.5,000.0,E,014.5,W,0,0,0,0,0,0,0
18/4/2021 13:13:10,0,0,0,0,0,0,0,0,0,0,0,0,0,0,0,0,0,0,0,0,0,0,0,W
18/4/2021 13:13:11,0,0,0,0,0,0,0,0,0,0,0,088.1,000.0,E,014.5,W,0,0,0,0,0,0,0
18/4/2021 13:13:12,0,0,0,0,0,0,0,0,0,0,0,086.3,000.0,E,014.5,W,0,0,0,0,0,0,0
18/4/2021 13:13:12,0,0,0,0,0,0,0,0,0,0,0,086.3,000.0,E,014.5,W,0,0,0,0,0,0,0
18/4/2021 13:13:13,0,0,0,0,0,0,0,0,0,0,0,084.5,000.0,E,014.5,W,0,0,0,0,0,0,0
18/4/2021 13:13:14,0,0,0,0,0,0,0,0,0,0,0,082.8,000.0,E,014.5,W,0,0,0,0,0,0,0
18/4/2021 13:13:15,0,0,0,0,0,0,0,0,0,0,0,079.3,000.0,E,014.5,W,0,0,0,0,0,0,0
18/4/2021 13:13:15,0,0,0,0,0,0,0,0,0,0,0,078.6,000.0,E,014.5,W,0,0,0,0,0,0,0
18/4/2021 13:13:15,0,0,0,0,0,0,0,0,0,0,0,076.4,000.0,E,014.5,W,0,0,0,0,0,0,0
18/4/2021 13:13:16,0,0,0,0,0,071.9,086.4,0.49,0.90,0,0,0,0,0,0,0,0,0,0,0,0,0,0
18/4/2021 13:13:16,0,0,0,0,0,0,0,0,0,0,0,067.9,000.0,E,014.5,W,0,0,0,0,0,0,0
18/4/2021 13:13:17,0,0,0,0,0,0,0,0,0,0,0,0,0,0,0,0,0,0,0,0,0,0,0,W
18/4/2021 13:13:18,0,0,0,0,0,0,0,0,0,0,0,054.1,000.0,E,014.5,W,0,0,0,0,0,0,0
18/4/2021 13:13:19,0,0,0,0,0,0,0,0,0,0,0,046.1,000.0,E,014.5,W,0,0,0,0,0,0,0
18/4/2021 13:13:19,0,0,0,0,0,0,0,0,0,0,0,0,0,0,0,0,0,0,0,0,0,0,0,W
18/4/2021 13:13:19,0,0,0,0,0,0,0,0,0,0,0,042.4,000.0,E,014.5,W,0,0,0,0,0,0,0
18/4/2021 13:13:20,0,0,0,0,0,0,0,0,0,0,0,038.0,000.0,E,014.5,W,0,0,0,0,0,0,0
18/4/2021 13:13:21,0,0,0,0,0,0,0,0,0,0,0,0,0,0,0,0,0,0,0,0,0,0,0,W
18/4/2021 13:13:24,0,0,0,0,0,0,0,0,0,0,0,018.8,000.0,E,014.5,W,0,0,0,0,0,0,0
18/4/2021 13:13:24,0,0,0,0,0,0,0,0,0,0,0,0,0,0,0,0,0,0,0,0,0,0,0,W
18/4/2021 13:13:25,0,0,0,0,0,056.3,070.8,0.39,0.72,0,0,0,0,0,0,0,0,0,0,0,0,0,0
18/4/2021 13:13:27,0,0,0,0,0,0,0,0,0,0,0,017.7,000.0,E,014.5,W,0,0,0,0,0,0,0
18/4/2021 13:13:30,0,0,0,0,0,057.7,072.2,0.29,0.54,0,0,0,0,0,0,0,0,0,0,0,0,0,0
18/4/2021 13:13:31,0,0,0,0,0,0,0,0,0,0,0,013.0,000.0,E,014.5,W,0,0,0,0,0,0,0
18/4/2021 13:13:32,0,0,0,0,0,0,0,0,0,0,0,0,0,0,0,0,0,0,0,0,0,0,0,W
18/4/2021 13:13:33,0,0,0,0,0,0,0,0,0,0,0,0,0,0,0,0,0,0,0,0,0,0,0,W
18/4/2021 13:13:34,0,0,0,0,0,0,0,0,0,0,0,008.1,000.0,E,014.5,W,0,0,0,0,0,0,0
18/4/2021 13:13:35,0,0,0,0,0,0,0,0,0,0,0,006.0,000.0,E,014.5,W,0,0,0,0,0,0,0
18/4/2021 13:13:37,0,0,0,0,0,0,0,0,0,0,0,0,0,0,0,0,0,0,0,0,0,0,0,W
18/4/2021 13:13:38,0,0,0,0,0,0,0,0,0,0,0,005.6,000.0,E,014.5,W,0,0,0,0,0,0,0
18/4/2021 13:13:38,0,0,0,0,0,0,0,0,0,0,0,006.0,000.0,E,014.5,W,0,0,0,0,0,0,0
18/4/2021 13:13:38,0,0,0,0,0,0,0,0,0,0,0,0,0,0,0,0,0,0,0,0,0,0,0,W
18/4/2021 13:13:39,0,0,0,0,0,0,0,0,0,0,0,005.0,000.0,E,014.5,W,0,0,0,0,0,0,0
18/4/2021 13:13:39,0,0,0,0,0,0,0,0,0,0,0,006.7,000.0,E,014.5,W,0,0,0,0,0,0,0
18/4/2021 13:13:40,0,0,0,0,0,0,0,0,0,0,0,0,0,0,0,0,0,0,0,0,0,0,0,W
18/4/2021 13:13:41,0,0,0,0,0,0,0,0,0,0,0,007.1,000.0,E,014.5,W,0,0,0,0,0,0,0
18/4/2021 13:13:43,0,0,0,0,0,0,0,0,0,0,0,0,0,0,0,0,0,0,0,0,0,0,0,W
18/4/2021 13:13:44,0,0,0,0,0,052.3,066.8,0.19,0.36,0,0,0,0,0,0,0,0,0,0,0,0,0,0
18/4/2021 13:13:45,0,0,0,0,0,0,0,0,0,0,0,010.8,000.0,E,014.5,W,0,0,0,0,0,0,0
18/4/2021 13:13:46,0,0,0,0,0,0,0,0,0,0,0,0,0,0,0,0,0,0,0,0,0,0,0,W
18/4/2021 13:13:47,0,0,0,0,0,0,0,0,0,0,0,012.0,000.0,E,014.5,W,0,0,0,0,0,0,0
18/4/2021 13:13:47,0,0,0,0,0,0,0,0,0,0,0,012.2,000.0,E,014.5,W,0,0,0,0,0,0,0
18/4/2021 13:13:48,0,0,0,0,0,0,0,0,0,0,0,011.4,000.0,E,014.5,W,0,0,0,0,0,0,0
18/4/2021 13:13:49,0,0,0,0,0,067.3,081.8,0.19,0.36,0,0,0,0,0,0,0,0,0,0,0,0,0,0
18/4/2021 13:13:49,0,0,0,0,0,0,0,0,0,0,0,0,0,0,0,0,0,0,0,0,0,0,0,W
18/4/2021 13:13:50,0,0,0,0,0,0,0,0,0,0,0,014.5,000.0,E,014.5,W,0,0,0,0,0,0,0
18/4/2021 13:13:50,0,0,0,0,0,0,0,0,0,0,0,013.4,000.0,E,014.5,W,0,0,0,0,0,0,0
18/4/2021 13:13:50,0,0,0,0,0,0,0,0,0,0,0,013.3,000.0,E,014.5,W,0,0,0,0,0,0,0
18/4/2021 13:13:51,0,0,0,0,0,0,0,0,0,0,0,014.5,000.0,E,014.5,W,0,0,0,0,0,0,0
18/4/2021 13:13:51,0,0,0,0,0,0,0,0,0,0,0,014.2,000.0,E,014.5,W,0,0,0,0,0,0,0
18/4/2021 13:13:51,0,0,0,0,0,0,0,0,0,0,0,0,0,0,0,0,0,0,0,0,0,0,0,W
18/4/2021 13:13:53,0,0,0,0,0,0,0,0,0,0,0,011.0,000.0,E,014.5,W,0,0,0,0,0,0,0
18/4/2021 13:13:54,0,0,0,0,0,0,0,0,0,0,0,009.3,000.0,E,014.5,W,0,0,0,0,0,0,0
18/4/2021 13:13:54,0,0,0,0,0,059.7,074.2,0.29,0.54,0,0,0,0,0,0,0,0,0,0,0,0,0,0
18/4/2021 13:13:55,0,0,0,0,0,0,0,0,0,0,0,0,0,0,0,0,0,0,0,0,0,0,0,W
18/4/2021 13:13:56,0,0,0,0,0,0,0,0,0,0,0,0,0,0,0,0,0,0,0,0,0,0,0,W
18/4/2021 13:13:56,0,0,0,0,0,0,0,0,0,0,0,0,0,0,0,0,0,0,0,0,0,0,0,W
18/4/2021 13:14:0,0,0,0,0,0,0,0,0,0,0,0,359.8,000.0,E,014.5,W,0,0,0,0,0,0,0
18/4/2021 13:14:0,0,0,0,0,0,0,0,0,0,0,0,001.0,000.0,E,014.5,W,0,0,0,0,0,0,0
18/4/2021 13:14:1,0,0,0,0,0,0,0,0,0,0,0,0,0,0,0,0,0,0,0,0,0,0,0,W
18/4/2021 13:14:3,0,0,0,0,0,0,0,0,0,0,0,004.9,000.0,E,014.5,W,0,0,0,0,0,0,0
18/4/2021 13:14:5,0,0,0,0,0,0,0,0,0,0,0,007.9,000.0,E,014.5,W,0,0,0,0,0,0,0
18/4/2021 13:14:6,0,0,0,0,0,0,0,0,0,0,0,011.0,000.0,E,014.5,W,0,0,0,0,0,0,0
18/4/2021 13:14:7,0,0,0,0,0,0,0,0,0,0,0,011.4,000.0,E,014.5,W,0,0,0,0,0,0,0
18/4/2021 13:14:8,0,0,0,0,0,051.0,065.5,0.49,0.90,0,0,0,0,0,0,0,0,0,0,0,0,0,0
18/4/2021 13:14:9,0,0,0,0,0,0,0,0,0,0,0,0,0,0,0,0,0,0,0,0,0,0,0,W
18/4/2021 13:14:9,0,0,0,0,0,052.6,067.1,0.39,0.72,0,0,0,0,0,0,0,0,0,0,0,0,0,0
18/4/2021 13:14:11,0,0,0,0,0,069.9,084.4,0.39,0.72,0,0,0,0,0,0,0,0,0,0,0,0,0,0
18/4/2021 13:14:12,0,0,0,0,0,0,0,0,0,0,0,015.4,000.0,E,014.5,W,0,0,0,0,0,0,0
18/4/2021 13:14:13,0,0,0,0,0,0,0,0,0,0,0,0,0,0,0,0,0,0,0,0,0,0,0,W
18/4/2021 13:14:13,0,0,0,0,0,0,0,0,0,0,0,016.4,000.0,E,014.5,W,0,0,0,0,0,0,0
18/4/2021 13:14:14,0,0,0,0,0,057.9,072.4,0.29,0.54,0,0,0,0,0,0,0,0,0,0,0,0,0,0
18/4/2021 13:14:15,0,0,0,0,0,0,0,0,0,0,0,014.3,000.0,E,014.5,W,0,0,0,0,0,0,0
18/4/2021 13:14:15,0,0,0,0,0,060.5,075.0,0.29,0.54,0,0,0,0,0,0,0,0,0,0,0,0,0,0
18/4/2021 13:14:17,0,0,0,0,0,0,0,0,0,0,0,0,0,0,0,0,0,0,0,0,0,0,0,W
18/4/2021 13:14:17,0,0,0,0,0,0,0,0,0,0,0,014.7,000.0,E,014.5,W,0,0,0,0,0,0,0
18/4/2021 13:14:17,0,0,0,0,0,0,0,0,0,0,0,0,0,0,0,0,0,0,0,0,0,0,0,W
18/4/2021 13:14:18,0,0,0,0,0,0,0,0,0,0,0,014.4,000.0,E,014.5,W,0,0,0,0,0,0,0
18/4/2021 13:14:18,0,0,0,0,0,0,0,0,0,0,0,015.0,000.0,E,014.5,W,0,0,0,0,0,0,0
18/4/2021 13:14:19,0,0,0,0,0,059.1,073.6,0.39,0.72,0,0,0,0,0,0,0,0,0,0,0,0,0,0
18/4/2021 13:14:20,0,0,0,0,0,062.5,077.0,0.39,0.72,0,0,0,0,0,0,0,0,0,0,0,0,0,0
18/4/2021 13:14:21,0,0,0,0,0,063.1,077.6,0.39,0.72,0,0,0,0,0,0,0,0,0,0,0,0,0,0
18/4/2021 13:14:23,0,0,0,0,0,0,0,0,0,0,0,019.6,000.0,E,014.5,W,0,0,0,0,0,0,0
18/4/2021 13:14:24,0,0,0,0,0,052.4,066.9,0.49,0.90,0,0,0,0,0,0,0,0,0,0,0,0,0,0
18/4/2021 13:14:26,0,0,0,0,0,0,0,0,0,0,0,020.7,000.0,E,014.5,W,0,0,0,0,0,0,0
18/4/2021 13:14:27,0,0,0,0,0,072.1,086.6,0.49,0.90,0,0,0,0,0,0,0,0,0,0,0,0,0,0
18/4/2021 13:14:27,0,0,0,0,0,0,0,0,0,0,0,016.3,000.0,E,014.5,W,0,0,0,0,0,0,0
18/4/2021 13:14:28,0,0,0,0,0,0,0,0,0,0,0,011.0,000.0,E,014.5,W,0,0,0,0,0,0,0
18/4/2021 13:14:28,0,0,0,0,0,0,0,0,0,0,0,0,0,0,0,0,0,0,0,0,0,0,0,W
18/4/2021 13:14:29,0,0,0,0,0,0,0,0,0,0,0,0,0,0,0,0,0,0,0,0,0,0,0,W
18/4/2021 13:14:30,0,0,0,0,0,0,0,0,0,0,0,0,0,0,0,0,0,0,0,0,0,0,0,W
18/4/2021 13:14:31,0,0,0,0,0,0,0,0,0,0,0,007.6,000.0,E,014.5,W,0,0,0,0,0,0,0
18/4/2021 13:14:32,0,0,0,0,0,0,0,0,0,0,0,0,0,0,0,0,0,0,0,0,0,0,0,W
18/4/2021 13:14:33,0,0,0,0,0,0,0,0,0,0,0,008.7,000.0,E,014.5,W,0,0,0,0,0,0,0
18/4/2021 13:14:35,0,0,0,0,0,0,0,0,0,0,0,006.3,000.0,E,014.5,W,0,0,0,0,0,0,0
18/4/2021 13:14:35,0,0,0,0,0,061.7,076.2,0.39,0.72,0,0,0,0,0,0,0,0,0,0,0,0,0,0
18/4/2021 13:14:36,0,0,0,0,0,055.8,070.3,0.39,0.72,0,0,0,0,0,0,0,0,0,0,0,0,0,0
18/4/2021 13:14:37,0,0,0,0,0,0,0,0,0,0,0,015.1,000.0,E,014.5,W,0,0,0,0,0,0,0
18/4/2021 13:14:37,0,0,0,0,0,0,0,0,0,0,0,018.8,000.0,E,014.5,W,0,0,0,0,0,0,0
18/4/2021 13:14:38,0,0,0,0,0,0,0,0,0,0,0,020.7,000.0,E,014.5,W,0,0,0,0,0,0,0
18/4/2021 13:14:38,0,0,0,0,0,053.0,067.5,0.29,0.54,0,0,0,0,0,0,0,0,0,0,0,0,0,0
18/4/2021 13:14:39,0,0,0,0,0,0,0,0,0,0,0,036.4,000.0,E,014.5,W,0,0,0,0,0,0,0
18/4/2021 13:14:41,0,0,0,0,0,0,0,0,0,0,0,0,0,0,0,0,0,0,0,0,0,0,0,W
18/4/2021 13:14:42,0,0,0,0,0,0,0,0,0,0,0,0,0,0,0,0,0,0,0,0,0,0,0,W
18/4/2021 13:14:42,0,0,0,0,0,0,0,0,0,0,0,0,0,0,0,0,0,0,0,0,0,0,0,W
18/4/2021 13:14:44,0,0,0,0,0,0,0,0,0,0,0,131.3,000.0,E,014.5,W,0,0,0,0,0,0,0
18/4/2021 13:14:44,0,0,0,0,0,081.5,096.0,0.29,0.54,0,0,0,0,0,0,0,0,0,0,0,0,0,0
18/4/2021 13:14:45,0,0,0,0,0,0,0,0,0,0,0,137.6,000.0,E,014.5,W,0,0,0,0,0,0,0
18/4/2021 13:14:45,0,0,0,0,0,0,0,0,0,0,0,139.2,000.0,E,014.5,W,0,0,0,0,0,0,0
18/4/2021 13:14:45,0,0,0,0,0,0,0,0,0,0,0,0,0,0,0,0,0,0,0,0,0,0,0,W
18/4/2021 13:14:46,0,0,0,0,0,0,0,0,0,0,0,149.4,000.0,E,014.5,W,0,0,0,0,0,0,0
18/4/2021 13:14:48,0,0,0,0,0,104.5,119.0,0.19,0.36,0,0,0,0,0,0,0,0,0,0,0,0,0,0
18/4/2021 13:14:49,0,0,0,0,0,0,0,0,0,0,0,162.3,000.0,E,014.5,W,0,0,0,0,0,0,0
18/4/2021 13:14:50,0,0,0,0,0,0,0,0,0,0,0,165.5,000.0,E,014.5,W,0,0,0,0,0,0,0
18/4/2021 13:14:51,0,0,0,0,0,0,0,0,0,0,0,170.9,000.0,E,014.5,W,0,0,0,0,0,0,0
18/4/2021 13:14:51,0,0,0,0,0,0,0,0,0,0,0,0,0,0,0,0,0,0,0,0,0,0,0,W
18/4/2021 13:14:52,0,0,0,0,0,0,0,0,0,0,0,0,0,0,0,0,0,0,0,0,0,0,0,W
18/4/2021 13:14:54,0,0,0,0,0,164.0,178.5,0.00,0.00,0,0,0,0,0,0,0,0,0,0,0,0,0,0
18/4/2021 13:14:55,0,0,0,0,0,0,0,0,0,0,0,189.9,000.0,E,014.5,W,0,0,0,0,0,0,0
